{
  "eventDir" : "/events/PAAQ/2024/12/05/so1aq0/1/WEAK51/",
  "thisDocGenerated" : "Thu Dec 05 18:51:15 UTC 2024",
  "thisDoc" : "/data/web/htdocs/events/json/PAAQWEAK51.json",
  "TWCID" : "PAAQ",
  "WMOID" : "WEAK51",
  "eventMagnitude" : 7.3,
  "eventMagnitudeType" : "Mwp",
  "eventDepth" : 13,
  "eventDepthType" : "kilometers",
  "eventLat" : 40.348,
  "eventLon" : -124.733,
  "originTime" : "2024-12-05T18:44:24 UTC",
  "bulletinIssueTime" : "2024-12-05T18:49:53Z",
  "quakeLocation" : "45 miles SW of Eureka, California",
  "issueYear" : "2024",
  "issueMonth" : "12",
  "issueDay" : "05",
  "twcEventID" : "so1aq0",
  "bulletinNr" : "1",
  "rootURL" : "/events/",
   "alerts" : {"areaList":[[{"twc":"PAAQ","bkp_start_location":"Davenport, California (10 miles NW of Santa Cruz)","bkp_start_lon":-122.20800018310547,"bkp_end_lat":43.862998962402344,"bkp_end_location":"Douglas/Lane Line, Oregon (10 miles SW of Florence)","bkp_start_lat":37.01499938964844,"bkp_end_lon":-124.16799926757812,"productDef":"Tsunami warnings mean that a tsunami with significant  inundation is expected or occurring.  Warnings indicate that  widespread dangerous coastal flooding accompanied by powerful  currents are possible and may continue for several hours after the  initial wave arrival.  ","WMOID":"WEAK51","category":"Warning","headLine":" A tsunami Warning is now in effect which includes the coastal areas of California and Oregon from Davenport, California (10 miles NW of Santa Cruz) to Douglas/Lane Line, Oregon (10 miles SW of Florence).  "}]]},
   "segments" : [ 
  
    {
       "id" : 1, 
       "category" : "Warning", 
       "NWSZones" : "PZZ530-531-CAZ006-505-506-508-509-109-104-103-101-ORZ021-022-051949-", 

       "headline" : "A tsunami Warning is now in effect which includes the coastal areas of California and Oregon from Davenport, California (10 miles NW of Santa Cruz) to Douglas/Lane Line, Oregon (10 miles SW of Florence).",


       "bkp_start_location" : "Davenport, California (10 miles NW of Santa Cruz)","bkp_start_lat" : 37.015,
          "bkp_start_lon" : -122.208,"bkp_end_location" : "Douglas/Lane Line, Oregon (10 miles SW of Florence)","bkp_end_lat" : 43.863,
          "bkp_end_lon" : -124.168,"recommendedActions" : "Actions to protect human life and property willvary within tsunami warning areas.If you are in a tsunami warning area: * Evacuate inland or to higher ground above and beyond designated tsunami hazard zones or move to an upper floor of a multi-story building depending on your situation.",
       "productDefinition" : "Tsunami warnings mean that a tsunami with significant inundation is expected or occurring.  Warnings indicate that widespread dangerous coastal flooding accompanied by powerful currents are possible and may continue for several hours after the initial wave arrival. " } 
   ], 
  "actions" : [ 
  
    {
       "otherCenterActions" : "Pacific coastal regions outside California, Oregon, Washington, British Columbia, and Alaska should refer to the Pacific Tsunami Warning Center messages for information on this event at tsunami.gov. ", 
       "nextActions" : "Additional Information and Next Update:  * The tsunami message will remain in effect until further notice.  * Refer to the internet site tsunami.gov for more information. * This message will be updated in 30 minutes or sooner if the situation warrants. " } 
   ], 
  
 "breakpointZones" : [ 
 ], 
 "breakpointLocations" : [ 
 ], 
  "observations" : [ 
  
    {
       "id" : 1,
       "locationName" : "Mattole River",
       "locationCountry" : "United States",
       "siteSegmentID" : 1,
       "lat" : "40.295",
       "lon" : "-124.356",
   	   "observedMaxTime"  : "",
"observedPosAmplitude" : "0.0",
"observedPosAmplitudeUnits" : "feet",
 "predictedPosAmplitude" : "0.0",
"predictedPosAmplitudeUnits" : "feet",
"predictedArrivalTime" : "2024-12-05T18:50:00Z" }, 
  
    {
       "id" : 2,
       "locationName" : "Lost Coast Shoreline",
       "locationCountry" : "United States",
       "siteSegmentID" : 1,
       "lat" : "40.172",
       "lon" : "-124.239",
   	   "observedMaxTime"  : "",
"observedPosAmplitude" : "0.0",
"observedPosAmplitudeUnits" : "feet",
 "predictedPosAmplitude" : "0.0",
"predictedPosAmplitudeUnits" : "feet",
"predictedArrivalTime" : "2024-12-05T18:55:00Z" }, 
  
    {
       "id" : 3,
       "locationName" : "Cape Mendocino",
       "locationCountry" : "United States",
       "siteSegmentID" : 1,
       "lat" : "40.517",
       "lon" : "-124.400",
   	   "observedMaxTime"  : "",
"observedPosAmplitude" : "0.0",
"observedPosAmplitudeUnits" : "feet",
 "predictedPosAmplitude" : "0.0",
"predictedPosAmplitudeUnits" : "feet",
"predictedArrivalTime" : "2024-12-05T18:55:00Z" }, 
  
    {
       "id" : 4,
       "locationName" : "DART 46411",
       "locationCountry" : "United States",
       "siteSegmentID" : 0,
       "lat" : "39.349",
       "lon" : "-127.015",
   	   "observedMaxTime"  : "",
"observedPosAmplitude" : "0.0",
"observedPosAmplitudeUnits" : "feet",
 "predictedPosAmplitude" : "0.0",
"predictedPosAmplitudeUnits" : "feet",
"predictedArrivalTime" : "2024-12-05T19:05:00Z" }, 
  
    {
       "id" : 5,
       "locationName" : "Humboldt Bay",
       "locationCountry" : "United States",
       "siteSegmentID" : 1,
       "lat" : "40.760",
       "lon" : "-124.227",
   	   "observedMaxTime"  : "",
"observedPosAmplitude" : "0.0",
"observedPosAmplitudeUnits" : "feet",
 "predictedPosAmplitude" : "0.0",
"predictedPosAmplitudeUnits" : "feet",
"predictedArrivalTime" : "2024-12-05T19:05:00Z" }, 
  
    {
       "id" : 6,
       "locationName" : "South Spit",
       "locationCountry" : "United States",
       "siteSegmentID" : 1,
       "lat" : "40.730",
       "lon" : "-124.250",
   	   "observedMaxTime"  : "",
"observedPosAmplitude" : "0.0",
"observedPosAmplitudeUnits" : "feet",
 "predictedPosAmplitude" : "0.0",
"predictedPosAmplitudeUnits" : "feet",
"predictedArrivalTime" : "2024-12-05T19:05:00Z" }, 
  
    {
       "id" : 7,
       "locationName" : "Mendo/Hum County Line",
       "locationCountry" : "United States",
       "siteSegmentID" : 1,
       "lat" : "40.001",
       "lon" : "-124.035",
   	   "observedMaxTime"  : "",
"observedPosAmplitude" : "0.0",
"observedPosAmplitudeUnits" : "feet",
 "predictedPosAmplitude" : "0.0",
"predictedPosAmplitudeUnits" : "feet",
"predictedArrivalTime" : "2024-12-05T19:05:00Z" }, 
  
    {
       "id" : 8,
       "locationName" : "Mendocino",
       "locationCountry" : "United States",
       "siteSegmentID" : 1,
       "lat" : "39.320",
       "lon" : "-123.820",
   	   "observedMaxTime"  : "",
"observedPosAmplitude" : "0.0",
"observedPosAmplitudeUnits" : "feet",
 "predictedPosAmplitude" : "0.0",
"predictedPosAmplitudeUnits" : "feet",
"predictedArrivalTime" : "2024-12-05T19:10:00Z" }, 
  
    {
       "id" : 9,
       "locationName" : "Eureka",
       "locationCountry" : "United States",
       "siteSegmentID" : 1,
       "lat" : "40.800",
       "lon" : "-124.180",
   	   "observedMaxTime"  : "",
"observedPosAmplitude" : "0.0",
"observedPosAmplitudeUnits" : "feet",
 "predictedPosAmplitude" : "0.0",
"predictedPosAmplitudeUnits" : "feet",
"predictedArrivalTime" : "2024-12-05T19:10:00Z" }, 
  
    {
       "id" : 10,
       "locationName" : "Fort Bragg",
       "locationCountry" : "United States",
       "siteSegmentID" : 1,
       "lat" : "39.428",
       "lon" : "-123.818",
   	   "observedMaxTime"  : "",
"observedPosAmplitude" : "0.0",
"observedPosAmplitudeUnits" : "feet",
 "predictedPosAmplitude" : "0.0",
"predictedPosAmplitudeUnits" : "feet",
"predictedArrivalTime" : "2024-12-05T19:10:00Z" }, 
  
    {
       "id" : 11,
       "locationName" : "North Spit coast",
       "locationCountry" : "United States",
       "siteSegmentID" : 1,
       "lat" : "40.962",
       "lon" : "-124.132",
   	   "observedMaxTime"  : "",
"observedPosAmplitude" : "0.0",
"observedPosAmplitudeUnits" : "feet",
 "predictedPosAmplitude" : "0.0",
"predictedPosAmplitudeUnits" : "feet",
"predictedArrivalTime" : "2024-12-05T19:10:00Z" }, 
  
    {
       "id" : 12,
       "locationName" : "Ten Mile River Beach",
       "locationCountry" : "United States",
       "siteSegmentID" : 1,
       "lat" : "39.530",
       "lon" : "-123.780",
   	   "observedMaxTime"  : "",
"observedPosAmplitude" : "0.0",
"observedPosAmplitudeUnits" : "feet",
 "predictedPosAmplitude" : "0.0",
"predictedPosAmplitudeUnits" : "feet",
"predictedArrivalTime" : "2024-12-05T19:10:00Z" }, 
  
    {
       "id" : 13,
       "locationName" : "Trinidad",
       "locationCountry" : "United States",
       "siteSegmentID" : 1,
       "lat" : "41.050",
       "lon" : "-124.130",
   	   "observedMaxTime"  : "",
"observedPosAmplitude" : "0.0",
"observedPosAmplitudeUnits" : "feet",
 "predictedPosAmplitude" : "0.0",
"predictedPosAmplitudeUnits" : "feet",
"predictedArrivalTime" : "2024-12-05T19:10:00Z" }, 
  
    {
       "id" : 14,
       "locationName" : "Arena Cove",
       "locationCountry" : "United States",
       "siteSegmentID" : 1,
       "lat" : "38.915",
       "lon" : "-123.711",
   	   "observedMaxTime"  : "",
"observedPosAmplitude" : "0.0",
"observedPosAmplitudeUnits" : "feet",
 "predictedPosAmplitude" : "0.0",
"predictedPosAmplitudeUnits" : "feet",
"predictedArrivalTime" : "2024-12-05T19:20:00Z" }, 
  
    {
       "id" : 15,
       "locationName" : "Pistol River",
       "locationCountry" : "United States",
       "siteSegmentID" : 1,
       "lat" : "42.290",
       "lon" : "-124.400",
   	   "observedMaxTime"  : "",
"observedPosAmplitude" : "0.0",
"observedPosAmplitudeUnits" : "feet",
 "predictedPosAmplitude" : "0.0",
"predictedPosAmplitudeUnits" : "feet",
"predictedArrivalTime" : "2024-12-05T19:20:00Z" }, 
  
    {
       "id" : 16,
       "locationName" : "Crescent City",
       "locationCountry" : "United States",
       "siteSegmentID" : 1,
       "lat" : "41.747",
       "lon" : "-124.183",
   	   "observedMaxTime"  : "",
"observedPosAmplitude" : "0.0",
"observedPosAmplitudeUnits" : "feet",
 "predictedPosAmplitude" : "0.0",
"predictedPosAmplitudeUnits" : "feet",
"predictedArrivalTime" : "2024-12-05T19:20:00Z" }, 
  
    {
       "id" : 17,
       "locationName" : "Gualala River",
       "locationCountry" : "United States",
       "siteSegmentID" : 1,
       "lat" : "38.768",
       "lon" : "-123.534",
   	   "observedMaxTime"  : "",
"observedPosAmplitude" : "0.0",
"observedPosAmplitudeUnits" : "feet",
 "predictedPosAmplitude" : "0.0",
"predictedPosAmplitudeUnits" : "feet",
"predictedArrivalTime" : "2024-12-05T19:20:00Z" }, 
  
    {
       "id" : 18,
       "locationName" : "Elk",
       "locationCountry" : "United States",
       "siteSegmentID" : 1,
       "lat" : "39.120",
       "lon" : "-123.720",
   	   "observedMaxTime"  : "",
"observedPosAmplitude" : "0.0",
"observedPosAmplitudeUnits" : "feet",
 "predictedPosAmplitude" : "0.0",
"predictedPosAmplitudeUnits" : "feet",
"predictedArrivalTime" : "2024-12-05T19:20:00Z" }, 
  
    {
       "id" : 19,
       "locationName" : "Port Orford",
       "locationCountry" : "United States",
       "siteSegmentID" : 1,
       "lat" : "42.730",
       "lon" : "-124.500",
   	   "observedMaxTime"  : "",
"observedPosAmplitude" : "0.0",
"observedPosAmplitudeUnits" : "feet",
 "predictedPosAmplitude" : "0.0",
"predictedPosAmplitudeUnits" : "feet",
"predictedArrivalTime" : "2024-12-05T19:20:00Z" }, 
  
    {
       "id" : 20,
       "locationName" : "Gold Beach",
       "locationCountry" : "United States",
       "siteSegmentID" : 1,
       "lat" : "42.420",
       "lon" : "-124.400",
   	   "observedMaxTime"  : "",
"observedPosAmplitude" : "0.0",
"observedPosAmplitudeUnits" : "feet",
 "predictedPosAmplitude" : "0.0",
"predictedPosAmplitudeUnits" : "feet",
"predictedArrivalTime" : "2024-12-05T19:20:00Z" }, 
  
    {
       "id" : 21,
       "locationName" : "Humboldt/Del Norte Line",
       "locationCountry" : "United States",
       "siteSegmentID" : 1,
       "lat" : "41.465",
       "lon" : "-124.066",
   	   "observedMaxTime"  : "",
"observedPosAmplitude" : "0.0",
"observedPosAmplitudeUnits" : "feet",
 "predictedPosAmplitude" : "0.0",
"predictedPosAmplitudeUnits" : "feet",
"predictedArrivalTime" : "2024-12-05T19:25:00Z" }, 
  
    {
       "id" : 22,
       "locationName" : "Klamath River Mouth",
       "locationCountry" : "United States",
       "siteSegmentID" : 1,
       "lat" : "41.530",
       "lon" : "-124.080",
   	   "observedMaxTime"  : "",
"observedPosAmplitude" : "0.0",
"observedPosAmplitudeUnits" : "feet",
 "predictedPosAmplitude" : "0.0",
"predictedPosAmplitudeUnits" : "feet",
"predictedArrivalTime" : "2024-12-05T19:25:00Z" }, 
  
    {
       "id" : 23,
       "locationName" : "DART 46407",
       "locationCountry" : "United States",
       "siteSegmentID" : 0,
       "lat" : "42.666",
       "lon" : "-128.811",
   	   "observedMaxTime"  : "",
"observedPosAmplitude" : "0.0",
"observedPosAmplitudeUnits" : "feet",
 "predictedPosAmplitude" : "0.0",
"predictedPosAmplitudeUnits" : "feet",
"predictedArrivalTime" : "2024-12-05T19:25:00Z" }, 
  
    {
       "id" : 24,
       "locationName" : "The Oregon/Cal. Border",
       "locationCountry" : "United States",
       "siteSegmentID" : 1,
       "lat" : "42.000",
       "lon" : "-124.217",
   	   "observedMaxTime"  : "",
"observedPosAmplitude" : "0.0",
"observedPosAmplitudeUnits" : "feet",
 "predictedPosAmplitude" : "0.0",
"predictedPosAmplitudeUnits" : "feet",
"predictedArrivalTime" : "2024-12-05T19:25:00Z" }, 
  
    {
       "id" : 25,
       "locationName" : "Brookings",
       "locationCountry" : "United States",
       "siteSegmentID" : 1,
       "lat" : "42.030",
       "lon" : "-124.270",
   	   "observedMaxTime"  : "",
"observedPosAmplitude" : "0.0",
"observedPosAmplitudeUnits" : "feet",
 "predictedPosAmplitude" : "0.0",
"predictedPosAmplitudeUnits" : "feet",
"predictedArrivalTime" : "2024-12-05T19:25:00Z" }, 
  
    {
       "id" : 26,
       "locationName" : "Cape Blanco",
       "locationCountry" : "United States",
       "siteSegmentID" : 1,
       "lat" : "42.850",
       "lon" : "-124.550",
   	   "observedMaxTime"  : "",
"observedPosAmplitude" : "0.0",
"observedPosAmplitudeUnits" : "feet",
 "predictedPosAmplitude" : "0.0",
"predictedPosAmplitudeUnits" : "feet",
"predictedArrivalTime" : "2024-12-05T19:25:00Z" }, 
  
    {
       "id" : 27,
       "locationName" : "Dart46451PC Oregon Coast",
       "locationCountry" : "United States",
       "siteSegmentID" : 0,
       "lat" : "44.814",
       "lon" : "-125.702",
   	   "observedMaxTime"  : "",
"observedPosAmplitude" : "0.0",
"observedPosAmplitudeUnits" : "feet",
 "predictedPosAmplitude" : "0.0",
"predictedPosAmplitudeUnits" : "feet",
"predictedArrivalTime" : "2024-12-05T19:30:00Z" }, 
  
    {
       "id" : 28,
       "locationName" : "Bastendorf Beach",
       "locationCountry" : "United States",
       "siteSegmentID" : 1,
       "lat" : "43.350",
       "lon" : "-124.350",
   	   "observedMaxTime"  : "",
"observedPosAmplitude" : "0.0",
"observedPosAmplitudeUnits" : "feet",
 "predictedPosAmplitude" : "0.0",
"predictedPosAmplitudeUnits" : "feet",
"predictedArrivalTime" : "2024-12-05T19:35:00Z" }, 
  
    {
       "id" : 29,
       "locationName" : "Coquille Point",
       "locationCountry" : "United States",
       "siteSegmentID" : 1,
       "lat" : "43.130",
       "lon" : "-124.430",
   	   "observedMaxTime"  : "",
"observedPosAmplitude" : "0.0",
"observedPosAmplitudeUnits" : "feet",
 "predictedPosAmplitude" : "0.0",
"predictedPosAmplitudeUnits" : "feet",
"predictedArrivalTime" : "2024-12-05T19:35:00Z" }, 
  
    {
       "id" : 30,
       "locationName" : "Russian River Mouth",
       "locationCountry" : "United States",
       "siteSegmentID" : 1,
       "lat" : "38.449",
       "lon" : "-123.132",
   	   "observedMaxTime"  : "",
"observedPosAmplitude" : "0.0",
"observedPosAmplitudeUnits" : "feet",
 "predictedPosAmplitude" : "0.0",
"predictedPosAmplitudeUnits" : "feet",
"predictedArrivalTime" : "2024-12-05T19:35:00Z" }, 
  
    {
       "id" : 31,
       "locationName" : "Carmel",
       "locationCountry" : "United States",
       "siteSegmentID" : 0,
       "lat" : "36.550",
       "lon" : "-121.930",
   	   "observedMaxTime"  : "",
"observedPosAmplitude" : "0.0",
"observedPosAmplitudeUnits" : "feet",
 "predictedPosAmplitude" : "0.0",
"predictedPosAmplitudeUnits" : "feet",
"predictedArrivalTime" : "2024-12-05T19:40:00Z" }, 
  
    {
       "id" : 32,
       "locationName" : "Bodega Bay",
       "locationCountry" : "United States",
       "siteSegmentID" : 1,
       "lat" : "38.300",
       "lon" : "-123.020",
   	   "observedMaxTime"  : "",
"observedPosAmplitude" : "0.0",
"observedPosAmplitudeUnits" : "feet",
 "predictedPosAmplitude" : "0.0",
"predictedPosAmplitudeUnits" : "feet",
"predictedArrivalTime" : "2024-12-05T19:40:00Z" }, 
  
    {
       "id" : 33,
       "locationName" : "Umpqua River Mouth",
       "locationCountry" : "United States",
       "siteSegmentID" : 1,
       "lat" : "43.670",
       "lon" : "-124.220",
   	   "observedMaxTime"  : "",
"observedPosAmplitude" : "0.0",
"observedPosAmplitudeUnits" : "feet",
 "predictedPosAmplitude" : "0.0",
"predictedPosAmplitudeUnits" : "feet",
"predictedArrivalTime" : "2024-12-05T19:40:00Z" }, 
  
    {
       "id" : 34,
       "locationName" : "Point Reyes",
       "locationCountry" : "United States",
       "siteSegmentID" : 1,
       "lat" : "38.000",
       "lon" : "-123.033",
   	   "observedMaxTime"  : "",
"observedPosAmplitude" : "0.0",
"observedPosAmplitudeUnits" : "feet",
 "predictedPosAmplitude" : "0.0",
"predictedPosAmplitudeUnits" : "feet",
"predictedArrivalTime" : "2024-12-05T19:40:00Z" }, 
  
    {
       "id" : 35,
       "locationName" : "Charleston",
       "locationCountry" : "United States",
       "siteSegmentID" : 1,
       "lat" : "43.350",
       "lon" : "-124.330",
   	   "observedMaxTime"  : "",
"observedPosAmplitude" : "0.0",
"observedPosAmplitudeUnits" : "feet",
 "predictedPosAmplitude" : "0.0",
"predictedPosAmplitudeUnits" : "feet",
"predictedArrivalTime" : "2024-12-05T19:40:00Z" }, 
  
    {
       "id" : 36,
       "locationName" : "Point Reyes Beach",
       "locationCountry" : "United States",
       "siteSegmentID" : 1,
       "lat" : "38.080",
       "lon" : "-122.980",
   	   "observedMaxTime"  : "",
"observedPosAmplitude" : "0.0",
"observedPosAmplitudeUnits" : "feet",
 "predictedPosAmplitude" : "0.0",
"predictedPosAmplitudeUnits" : "feet",
"predictedArrivalTime" : "2024-12-05T19:40:00Z" }, 
  
    {
       "id" : 37,
       "locationName" : "Point Sur",
       "locationCountry" : "United States",
       "siteSegmentID" : 0,
       "lat" : "36.310",
       "lon" : "-121.900",
   	   "observedMaxTime"  : "",
"observedPosAmplitude" : "0.0",
"observedPosAmplitudeUnits" : "feet",
 "predictedPosAmplitude" : "0.0",
"predictedPosAmplitudeUnits" : "feet",
"predictedArrivalTime" : "2024-12-05T19:45:00Z" }, 
  
    {
       "id" : 38,
       "locationName" : "Moss Landing",
       "locationCountry" : "United States",
       "siteSegmentID" : 0,
       "lat" : "36.804",
       "lon" : "-121.794",
   	   "observedMaxTime"  : "",
"observedPosAmplitude" : "0.0",
"observedPosAmplitudeUnits" : "feet",
 "predictedPosAmplitude" : "0.0",
"predictedPosAmplitudeUnits" : "feet",
"predictedArrivalTime" : "2024-12-05T19:45:00Z" }, 
  
    {
       "id" : 39,
       "locationName" : "Davenport",
       "locationCountry" : "United States",
       "siteSegmentID" : 1,
       "lat" : "37.015",
       "lon" : "-122.208",
   	   "observedMaxTime"  : "",
"observedPosAmplitude" : "0.0",
"observedPosAmplitudeUnits" : "feet",
 "predictedPosAmplitude" : "0.0",
"predictedPosAmplitudeUnits" : "feet",
"predictedArrivalTime" : "2024-12-05T19:45:00Z" }, 
  
    {
       "id" : 40,
       "locationName" : "Douglas/Lane Line",
       "locationCountry" : "United States",
       "siteSegmentID" : 1,
       "lat" : "43.863",
       "lon" : "-124.168",
   	   "observedMaxTime"  : "",
"observedPosAmplitude" : "0.0",
"observedPosAmplitudeUnits" : "feet",
 "predictedPosAmplitude" : "0.0",
"predictedPosAmplitudeUnits" : "feet",
"predictedArrivalTime" : "2024-12-05T19:45:00Z" }, 
  
    {
       "id" : 41,
       "locationName" : "Santa Cruz",
       "locationCountry" : "United States",
       "siteSegmentID" : 0,
       "lat" : "36.950",
       "lon" : "-122.030",
   	   "observedMaxTime"  : "",
"observedPosAmplitude" : "0.0",
"observedPosAmplitudeUnits" : "feet",
 "predictedPosAmplitude" : "0.0",
"predictedPosAmplitudeUnits" : "feet",
"predictedArrivalTime" : "2024-12-05T19:45:00Z" }, 
  
    {
       "id" : 42,
       "locationName" : "Empire",
       "locationCountry" : "United States",
       "siteSegmentID" : 1,
       "lat" : "43.394",
       "lon" : "-124.284",
   	   "observedMaxTime"  : "",
"observedPosAmplitude" : "0.0",
"observedPosAmplitudeUnits" : "feet",
 "predictedPosAmplitude" : "0.0",
"predictedPosAmplitudeUnits" : "feet",
"predictedArrivalTime" : "2024-12-05T19:45:00Z" }, 
  
    {
       "id" : 43,
       "locationName" : "Monterey",
       "locationCountry" : "United States",
       "siteSegmentID" : 0,
       "lat" : "36.605",
       "lon" : "-121.890",
   	   "observedMaxTime"  : "",
"observedPosAmplitude" : "0.0",
"observedPosAmplitudeUnits" : "feet",
 "predictedPosAmplitude" : "0.0",
"predictedPosAmplitudeUnits" : "feet",
"predictedArrivalTime" : "2024-12-05T19:50:00Z" }, 
  
    {
       "id" : 44,
       "locationName" : "Florence",
       "locationCountry" : "United States",
       "siteSegmentID" : 0,
       "lat" : "44.020",
       "lon" : "-124.150",
   	   "observedMaxTime"  : "",
"observedPosAmplitude" : "0.0",
"observedPosAmplitudeUnits" : "feet",
 "predictedPosAmplitude" : "0.0",
"predictedPosAmplitudeUnits" : "feet",
"predictedArrivalTime" : "2024-12-05T19:50:00Z" }, 
  
    {
       "id" : 45,
       "locationName" : "Siuslaw River Mouth",
       "locationCountry" : "United States",
       "siteSegmentID" : 0,
       "lat" : "44.020",
       "lon" : "-124.150",
   	   "observedMaxTime"  : "",
"observedPosAmplitude" : "0.0",
"observedPosAmplitudeUnits" : "feet",
 "predictedPosAmplitude" : "0.0",
"predictedPosAmplitudeUnits" : "feet",
"predictedArrivalTime" : "2024-12-05T19:50:00Z" }, 
  
    {
       "id" : 46,
       "locationName" : "DART 46404",
       "locationCountry" : "United States",
       "siteSegmentID" : 0,
       "lat" : "45.853",
       "lon" : "-128.780",
   	   "observedMaxTime"  : "",
"observedPosAmplitude" : "0.0",
"observedPosAmplitudeUnits" : "feet",
 "predictedPosAmplitude" : "0.0",
"predictedPosAmplitudeUnits" : "feet",
"predictedArrivalTime" : "2024-12-05T19:50:00Z" }, 
  
    {
       "id" : 47,
       "locationName" : "Bolinas Lagoon",
       "locationCountry" : "United States",
       "siteSegmentID" : 1,
       "lat" : "37.908",
       "lon" : "-122.679",
   	   "observedMaxTime"  : "",
"observedPosAmplitude" : "0.0",
"observedPosAmplitudeUnits" : "feet",
 "predictedPosAmplitude" : "0.0",
"predictedPosAmplitudeUnits" : "feet",
"predictedArrivalTime" : "2024-12-05T19:55:00Z" }, 
  
    {
       "id" : 48,
       "locationName" : "Rio Del Mar",
       "locationCountry" : "United States",
       "siteSegmentID" : 0,
       "lat" : "36.970",
       "lon" : "-121.920",
   	   "observedMaxTime"  : "",
"observedPosAmplitude" : "0.0",
"observedPosAmplitudeUnits" : "feet",
 "predictedPosAmplitude" : "0.0",
"predictedPosAmplitudeUnits" : "feet",
"predictedArrivalTime" : "2024-12-05T19:55:00Z" }, 
  
    {
       "id" : 49,
       "locationName" : "Ragged Point",
       "locationCountry" : "United States",
       "siteSegmentID" : 0,
       "lat" : "35.798",
       "lon" : "-121.350",
   	   "observedMaxTime"  : "",
"observedPosAmplitude" : "0.0",
"observedPosAmplitudeUnits" : "feet",
 "predictedPosAmplitude" : "0.0",
"predictedPosAmplitudeUnits" : "feet",
"predictedArrivalTime" : "2024-12-05T19:55:00Z" }, 
  
    {
       "id" : 50,
       "locationName" : "Bolinas",
       "locationCountry" : "United States",
       "siteSegmentID" : 1,
       "lat" : "37.903",
       "lon" : "-122.686",
   	   "observedMaxTime"  : "",
"observedPosAmplitude" : "0.0",
"observedPosAmplitudeUnits" : "feet",
 "predictedPosAmplitude" : "0.0",
"predictedPosAmplitudeUnits" : "feet",
"predictedArrivalTime" : "2024-12-05T19:55:00Z" }, 
  
    {
       "id" : 51,
       "locationName" : "Half Moon Bay",
       "locationCountry" : "United States",
       "siteSegmentID" : 1,
       "lat" : "37.470",
       "lon" : "-122.450",
   	   "observedMaxTime"  : "",
"observedPosAmplitude" : "0.0",
"observedPosAmplitudeUnits" : "feet",
 "predictedPosAmplitude" : "0.0",
"predictedPosAmplitudeUnits" : "feet",
"predictedArrivalTime" : "2024-12-05T19:55:00Z" }, 
  
    {
       "id" : 52,
       "locationName" : "Pacifica",
       "locationCountry" : "United States",
       "siteSegmentID" : 1,
       "lat" : "37.630",
       "lon" : "-122.500",
   	   "observedMaxTime"  : "",
"observedPosAmplitude" : "0.0",
"observedPosAmplitudeUnits" : "feet",
 "predictedPosAmplitude" : "0.0",
"predictedPosAmplitudeUnits" : "feet",
"predictedArrivalTime" : "2024-12-05T19:55:00Z" }, 
  
    {
       "id" : 53,
       "locationName" : "Depoe Bay",
       "locationCountry" : "United States",
       "siteSegmentID" : 0,
       "lat" : "44.820",
       "lon" : "-124.070",
   	   "observedMaxTime"  : "",
"observedPosAmplitude" : "0.0",
"observedPosAmplitudeUnits" : "feet",
 "predictedPosAmplitude" : "0.0",
"predictedPosAmplitudeUnits" : "feet",
"predictedArrivalTime" : "2024-12-05T20:00:00Z" }, 
  
    {
       "id" : 54,
       "locationName" : "Stinson Beach",
       "locationCountry" : "United States",
       "siteSegmentID" : 1,
       "lat" : "37.895",
       "lon" : "-122.643",
   	   "observedMaxTime"  : "",
"observedPosAmplitude" : "0.0",
"observedPosAmplitudeUnits" : "feet",
 "predictedPosAmplitude" : "0.0",
"predictedPosAmplitudeUnits" : "feet",
"predictedArrivalTime" : "2024-12-05T20:00:00Z" }, 
  
    {
       "id" : 55,
       "locationName" : "Cascade Head",
       "locationCountry" : "United States",
       "siteSegmentID" : 0,
       "lat" : "45.047",
       "lon" : "-124.011",
   	   "observedMaxTime"  : "",
"observedPosAmplitude" : "0.0",
"observedPosAmplitudeUnits" : "feet",
 "predictedPosAmplitude" : "0.0",
"predictedPosAmplitudeUnits" : "feet",
"predictedArrivalTime" : "2024-12-05T20:00:00Z" }, 
  
    {
       "id" : 56,
       "locationName" : "Neskowin",
       "locationCountry" : "United States",
       "siteSegmentID" : 0,
       "lat" : "45.120",
       "lon" : "-124.000",
   	   "observedMaxTime"  : "",
"observedPosAmplitude" : "0.0",
"observedPosAmplitudeUnits" : "feet",
 "predictedPosAmplitude" : "0.0",
"predictedPosAmplitudeUnits" : "feet",
"predictedArrivalTime" : "2024-12-05T20:00:00Z" }, 
  
    {
       "id" : 57,
       "locationName" : "Ocean Beach",
       "locationCountry" : "United States",
       "siteSegmentID" : 1,
       "lat" : "37.770",
       "lon" : "-122.510",
   	   "observedMaxTime"  : "",
"observedPosAmplitude" : "0.0",
"observedPosAmplitudeUnits" : "feet",
 "predictedPosAmplitude" : "0.0",
"predictedPosAmplitudeUnits" : "feet",
"predictedArrivalTime" : "2024-12-05T20:05:00Z" }, 
  
    {
       "id" : 58,
       "locationName" : "Cascadia Basin W",
       "locationCountry" : "Canada",
       "siteSegmentID" : 0,
       "lat" : "47.764",
       "lon" : "-128.058",
   	   "observedMaxTime"  : "",
"observedPosAmplitude" : "0.0",
"observedPosAmplitudeUnits" : "feet",
 "predictedPosAmplitude" : "0.0",
"predictedPosAmplitudeUnits" : "feet",
"predictedArrivalTime" : "2024-12-05T20:05:00Z" }, 
  
    {
       "id" : 59,
       "locationName" : "Cascadia Basin SE",
       "locationCountry" : "Canada",
       "siteSegmentID" : 0,
       "lat" : "47.562",
       "lon" : "-127.608",
   	   "observedMaxTime"  : "",
"observedPosAmplitude" : "0.0",
"observedPosAmplitudeUnits" : "feet",
 "predictedPosAmplitude" : "0.0",
"predictedPosAmplitudeUnits" : "feet",
"predictedArrivalTime" : "2024-12-05T20:05:00Z" }, 
  
    {
       "id" : 60,
       "locationName" : "Newport",
       "locationCountry" : "United States",
       "siteSegmentID" : 0,
       "lat" : "44.617",
       "lon" : "-124.067",
   	   "observedMaxTime"  : "",
"observedPosAmplitude" : "0.0",
"observedPosAmplitudeUnits" : "feet",
 "predictedPosAmplitude" : "0.0",
"predictedPosAmplitudeUnits" : "feet",
"predictedArrivalTime" : "2024-12-05T20:05:00Z" }, 
  
    {
       "id" : 61,
       "locationName" : "Siletz Bay",
       "locationCountry" : "United States",
       "siteSegmentID" : 0,
       "lat" : "44.900",
       "lon" : "-124.000",
   	   "observedMaxTime"  : "",
"observedPosAmplitude" : "0.0",
"observedPosAmplitudeUnits" : "feet",
 "predictedPosAmplitude" : "0.0",
"predictedPosAmplitudeUnits" : "feet",
"predictedArrivalTime" : "2024-12-05T20:05:00Z" }, 
  
    {
       "id" : 62,
       "locationName" : "Cascadia Basin ODP 1026",
       "locationCountry" : "Canada",
       "siteSegmentID" : 0,
       "lat" : "47.763",
       "lon" : "-127.758",
   	   "observedMaxTime"  : "",
"observedPosAmplitude" : "0.0",
"observedPosAmplitudeUnits" : "feet",
 "predictedPosAmplitude" : "0.0",
"predictedPosAmplitudeUnits" : "feet",
"predictedArrivalTime" : "2024-12-05T20:05:00Z" }, 
  
    {
       "id" : 63,
       "locationName" : "Newport coast",
       "locationCountry" : "United States",
       "siteSegmentID" : 0,
       "lat" : "44.627",
       "lon" : "-124.070",
   	   "observedMaxTime"  : "",
"observedPosAmplitude" : "0.0",
"observedPosAmplitudeUnits" : "feet",
 "predictedPosAmplitude" : "0.0",
"predictedPosAmplitudeUnits" : "feet",
"predictedArrivalTime" : "2024-12-05T20:05:00Z" }, 
  
    {
       "id" : 64,
       "locationName" : "Neptune ODP1027",
       "locationCountry" : "Canada",
       "siteSegmentID" : 0,
       "lat" : "47.763",
       "lon" : "-127.759",
   	   "observedMaxTime"  : "",
"observedPosAmplitude" : "0.0",
"observedPosAmplitudeUnits" : "feet",
 "predictedPosAmplitude" : "0.0",
"predictedPosAmplitudeUnits" : "feet",
"predictedArrivalTime" : "2024-12-05T20:05:00Z" }, 
  
    {
       "id" : 65,
       "locationName" : "Nestucca Bay",
       "locationCountry" : "United States",
       "siteSegmentID" : 0,
       "lat" : "45.180",
       "lon" : "-123.980",
   	   "observedMaxTime"  : "",
"observedPosAmplitude" : "0.0",
"observedPosAmplitudeUnits" : "feet",
 "predictedPosAmplitude" : "0.0",
"predictedPosAmplitudeUnits" : "feet",
"predictedArrivalTime" : "2024-12-05T20:05:00Z" }, 
  
    {
       "id" : 66,
       "locationName" : "Yachats",
       "locationCountry" : "United States",
       "siteSegmentID" : 0,
       "lat" : "44.320",
       "lon" : "-124.120",
   	   "observedMaxTime"  : "",
"observedPosAmplitude" : "0.0",
"observedPosAmplitudeUnits" : "feet",
 "predictedPosAmplitude" : "0.0",
"predictedPosAmplitudeUnits" : "feet",
"predictedArrivalTime" : "2024-12-05T20:05:00Z" }, 
  
    {
       "id" : 67,
       "locationName" : "Yaquina John Point",
       "locationCountry" : "United States",
       "siteSegmentID" : 0,
       "lat" : "44.430",
       "lon" : "-124.080",
   	   "observedMaxTime"  : "",
"observedPosAmplitude" : "0.0",
"observedPosAmplitudeUnits" : "feet",
 "predictedPosAmplitude" : "0.0",
"predictedPosAmplitudeUnits" : "feet",
"predictedArrivalTime" : "2024-12-05T20:05:00Z" }, 
  
    {
       "id" : 68,
       "locationName" : "Platform Harvest",
       "locationCountry" : "United States",
       "siteSegmentID" : 0,
       "lat" : "34.468",
       "lon" : "-120.673",
   	   "observedMaxTime"  : "",
"observedPosAmplitude" : "0.0",
"observedPosAmplitudeUnits" : "feet",
 "predictedPosAmplitude" : "0.0",
"predictedPosAmplitudeUnits" : "feet",
"predictedArrivalTime" : "2024-12-05T20:05:00Z" }, 
  
    {
       "id" : 69,
       "locationName" : "Mothra Endeavour",
       "locationCountry" : "Canada",
       "siteSegmentID" : 0,
       "lat" : "47.924",
       "lon" : "-129.108",
   	   "observedMaxTime"  : "",
"observedPosAmplitude" : "0.0",
"observedPosAmplitudeUnits" : "feet",
 "predictedPosAmplitude" : "0.0",
"predictedPosAmplitudeUnits" : "feet",
"predictedArrivalTime" : "2024-12-05T20:10:00Z" }, 
  
    {
       "id" : 70,
       "locationName" : "West Flank Endeavour",
       "locationCountry" : "Canada",
       "siteSegmentID" : 0,
       "lat" : "47.959",
       "lon" : "-129.125",
   	   "observedMaxTime"  : "",
"observedPosAmplitude" : "0.0",
"observedPosAmplitudeUnits" : "feet",
 "predictedPosAmplitude" : "0.0",
"predictedPosAmplitudeUnits" : "feet",
"predictedArrivalTime" : "2024-12-05T20:10:00Z" }, 
  
    {
       "id" : 71,
       "locationName" : "Endeavour South",
       "locationCountry" : "Canada",
       "siteSegmentID" : 0,
       "lat" : "47.949",
       "lon" : "-129.099",
   	   "observedMaxTime"  : "",
"observedPosAmplitude" : "0.0",
"observedPosAmplitudeUnits" : "feet",
 "predictedPosAmplitude" : "0.0",
"predictedPosAmplitudeUnits" : "feet",
"predictedArrivalTime" : "2024-12-05T20:10:00Z" }, 
  
    {
       "id" : 72,
       "locationName" : "Diablo Canyon",
       "locationCountry" : "United States",
       "siteSegmentID" : 0,
       "lat" : "35.205",
       "lon" : "-120.858",
   	   "observedMaxTime"  : "",
"observedPosAmplitude" : "0.0",
"observedPosAmplitudeUnits" : "feet",
 "predictedPosAmplitude" : "0.0",
"predictedPosAmplitudeUnits" : "feet",
"predictedArrivalTime" : "2024-12-05T20:10:00Z" }, 
  
    {
       "id" : 73,
       "locationName" : "San Francisco",
       "locationCountry" : "United States",
       "siteSegmentID" : 1,
       "lat" : "37.810",
       "lon" : "-122.480",
   	   "observedMaxTime"  : "",
"observedPosAmplitude" : "0.0",
"observedPosAmplitudeUnits" : "feet",
 "predictedPosAmplitude" : "0.0",
"predictedPosAmplitudeUnits" : "feet",
"predictedArrivalTime" : "2024-12-05T20:10:00Z" }, 
  
    {
       "id" : 74,
       "locationName" : "Morro Bay",
       "locationCountry" : "United States",
       "siteSegmentID" : 0,
       "lat" : "35.370",
       "lon" : "-120.870",
   	   "observedMaxTime"  : "",
"observedPosAmplitude" : "0.0",
"observedPosAmplitudeUnits" : "feet",
 "predictedPosAmplitude" : "0.0",
"predictedPosAmplitudeUnits" : "feet",
"predictedArrivalTime" : "2024-12-05T20:10:00Z" }, 
  
    {
       "id" : 75,
       "locationName" : "Cascadia Basin NE",
       "locationCountry" : "Canada",
       "siteSegmentID" : 0,
       "lat" : "47.906",
       "lon" : "-127.621",
   	   "observedMaxTime"  : "",
"observedPosAmplitude" : "0.0",
"observedPosAmplitudeUnits" : "feet",
 "predictedPosAmplitude" : "0.0",
"predictedPosAmplitudeUnits" : "feet",
"predictedArrivalTime" : "2024-12-05T20:10:00Z" }, 
  
    {
       "id" : 76,
       "locationName" : "Main Endeavour Field",
       "locationCountry" : "Canada",
       "siteSegmentID" : 0,
       "lat" : "47.949",
       "lon" : "-129.099",
   	   "observedMaxTime"  : "",
"observedPosAmplitude" : "0.0",
"observedPosAmplitudeUnits" : "feet",
 "predictedPosAmplitude" : "0.0",
"predictedPosAmplitudeUnits" : "feet",
"predictedArrivalTime" : "2024-12-05T20:10:00Z" }, 
  
    {
       "id" : 77,
       "locationName" : "Manzanita",
       "locationCountry" : "United States",
       "siteSegmentID" : 0,
       "lat" : "45.720",
       "lon" : "-123.950",
   	   "observedMaxTime"  : "",
"observedPosAmplitude" : "0.0",
"observedPosAmplitudeUnits" : "feet",
 "predictedPosAmplitude" : "0.0",
"predictedPosAmplitudeUnits" : "feet",
"predictedArrivalTime" : "2024-12-05T20:10:00Z" }, 
  
    {
       "id" : 78,
       "locationName" : "Neptune8C",
       "locationCountry" : "Canada",
       "siteSegmentID" : 0,
       "lat" : "47.974",
       "lon" : "-129.082",
   	   "observedMaxTime"  : "",
"observedPosAmplitude" : "0.0",
"observedPosAmplitudeUnits" : "feet",
 "predictedPosAmplitude" : "0.0",
"predictedPosAmplitudeUnits" : "feet",
"predictedArrivalTime" : "2024-12-05T20:10:00Z" }, 
  
    {
       "id" : 79,
       "locationName" : "Rockaway Beach",
       "locationCountry" : "United States",
       "siteSegmentID" : 0,
       "lat" : "45.620",
       "lon" : "-123.950",
   	   "observedMaxTime"  : "",
"observedPosAmplitude" : "0.0",
"observedPosAmplitudeUnits" : "feet",
 "predictedPosAmplitude" : "0.0",
"predictedPosAmplitudeUnits" : "feet",
"predictedArrivalTime" : "2024-12-05T20:10:00Z" }, 
  
    {
       "id" : 80,
       "locationName" : "Netarts",
       "locationCountry" : "United States",
       "siteSegmentID" : 0,
       "lat" : "45.430",
       "lon" : "-123.950",
   	   "observedMaxTime"  : "",
"observedPosAmplitude" : "0.0",
"observedPosAmplitudeUnits" : "feet",
 "predictedPosAmplitude" : "0.0",
"predictedPosAmplitudeUnits" : "feet",
"predictedArrivalTime" : "2024-12-05T20:10:00Z" }, 
  
    {
       "id" : 81,
       "locationName" : "RCM South Endeavour",
       "locationCountry" : "Canada",
       "siteSegmentID" : 0,
       "lat" : "47.933",
       "lon" : "-129.099",
   	   "observedMaxTime"  : "",
"observedPosAmplitude" : "0.0",
"observedPosAmplitudeUnits" : "feet",
 "predictedPosAmplitude" : "0.0",
"predictedPosAmplitudeUnits" : "feet",
"predictedArrivalTime" : "2024-12-05T20:10:00Z" }, 
  
    {
       "id" : 82,
       "locationName" : "Fort Point",
       "locationCountry" : "United States",
       "siteSegmentID" : 1,
       "lat" : "37.810",
       "lon" : "-122.480",
   	   "observedMaxTime"  : "",
"observedPosAmplitude" : "0.0",
"observedPosAmplitudeUnits" : "feet",
 "predictedPosAmplitude" : "0.0",
"predictedPosAmplitudeUnits" : "feet",
"predictedArrivalTime" : "2024-12-05T20:10:00Z" }, 
  
    {
       "id" : 83,
       "locationName" : "Garibaldi",
       "locationCountry" : "United States",
       "siteSegmentID" : 0,
       "lat" : "45.567",
       "lon" : "-123.950",
   	   "observedMaxTime"  : "",
"observedPosAmplitude" : "0.0",
"observedPosAmplitudeUnits" : "feet",
 "predictedPosAmplitude" : "0.0",
"predictedPosAmplitudeUnits" : "feet",
"predictedArrivalTime" : "2024-12-05T20:10:00Z" }, 
  
    {
       "id" : 84,
       "locationName" : "Oceanside Beach",
       "locationCountry" : "United States",
       "siteSegmentID" : 0,
       "lat" : "45.450",
       "lon" : "-123.970",
   	   "observedMaxTime"  : "",
"observedPosAmplitude" : "0.0",
"observedPosAmplitudeUnits" : "feet",
 "predictedPosAmplitude" : "0.0",
"predictedPosAmplitudeUnits" : "feet",
"predictedArrivalTime" : "2024-12-05T20:10:00Z" }, 
  
    {
       "id" : 85,
       "locationName" : "Bayocean Peninsula",
       "locationCountry" : "United States",
       "siteSegmentID" : 0,
       "lat" : "45.529",
       "lon" : "-123.960",
   	   "observedMaxTime"  : "",
"observedPosAmplitude" : "0.0",
"observedPosAmplitudeUnits" : "feet",
 "predictedPosAmplitude" : "0.0",
"predictedPosAmplitudeUnits" : "feet",
"predictedArrivalTime" : "2024-12-05T20:10:00Z" }, 
  
    {
       "id" : 86,
       "locationName" : "Cannon Beach",
       "locationCountry" : "United States",
       "siteSegmentID" : 0,
       "lat" : "45.900",
       "lon" : "-123.970",
   	   "observedMaxTime"  : "",
"observedPosAmplitude" : "0.0",
"observedPosAmplitudeUnits" : "feet",
 "predictedPosAmplitude" : "0.0",
"predictedPosAmplitudeUnits" : "feet",
"predictedArrivalTime" : "2024-12-05T20:15:00Z" }, 
  
    {
       "id" : 87,
       "locationName" : "Neptune88",
       "locationCountry" : "Canada",
       "siteSegmentID" : 0,
       "lat" : "48.671",
       "lon" : "-126.848",
   	   "observedMaxTime"  : "",
"observedPosAmplitude" : "0.0",
"observedPosAmplitudeUnits" : "feet",
 "predictedPosAmplitude" : "0.0",
"predictedPosAmplitudeUnits" : "feet",
"predictedArrivalTime" : "2024-12-05T20:15:00Z" }, 
  
    {
       "id" : 88,
       "locationName" : "The Oregon/Wash. Border",
       "locationCountry" : "United States",
       "siteSegmentID" : 0,
       "lat" : "46.254",
       "lon" : "-124.076",
   	   "observedMaxTime"  : "",
"observedPosAmplitude" : "0.0",
"observedPosAmplitudeUnits" : "feet",
 "predictedPosAmplitude" : "0.0",
"predictedPosAmplitudeUnits" : "feet",
"predictedArrivalTime" : "2024-12-05T20:15:00Z" }, 
  
    {
       "id" : 89,
       "locationName" : "Point Conception",
       "locationCountry" : "United States",
       "siteSegmentID" : 0,
       "lat" : "34.449",
       "lon" : "-120.473",
   	   "observedMaxTime"  : "",
"observedPosAmplitude" : "0.0",
"observedPosAmplitudeUnits" : "feet",
 "predictedPosAmplitude" : "0.0",
"predictedPosAmplitudeUnits" : "feet",
"predictedArrivalTime" : "2024-12-05T20:15:00Z" }, 
  
    {
       "id" : 90,
       "locationName" : "Neptune Barkley Canyon",
       "locationCountry" : "Canada",
       "siteSegmentID" : 0,
       "lat" : "48.427",
       "lon" : "-126.175",
   	   "observedMaxTime"  : "",
"observedPosAmplitude" : "0.0",
"observedPosAmplitudeUnits" : "feet",
 "predictedPosAmplitude" : "0.0",
"predictedPosAmplitudeUnits" : "feet",
"predictedArrivalTime" : "2024-12-05T20:15:00Z" }, 
  
    {
       "id" : 91,
       "locationName" : "DART 46412",
       "locationCountry" : "United States",
       "siteSegmentID" : 0,
       "lat" : "32.457",
       "lon" : "-120.561",
   	   "observedMaxTime"  : "",
"observedPosAmplitude" : "0.0",
"observedPosAmplitudeUnits" : "feet",
 "predictedPosAmplitude" : "0.0",
"predictedPosAmplitudeUnits" : "feet",
"predictedArrivalTime" : "2024-12-05T20:15:00Z" }, 
  
    {
       "id" : 92,
       "locationName" : "Port San Luis",
       "locationCountry" : "United States",
       "siteSegmentID" : 0,
       "lat" : "35.160",
       "lon" : "-120.763",
   	   "observedMaxTime"  : "",
"observedPosAmplitude" : "0.0",
"observedPosAmplitudeUnits" : "feet",
 "predictedPosAmplitude" : "0.0",
"predictedPosAmplitudeUnits" : "feet",
"predictedArrivalTime" : "2024-12-05T20:15:00Z" }, 
  
    {
       "id" : 93,
       "locationName" : "Clayquout Slope Bullseye",
       "locationCountry" : "Canada",
       "siteSegmentID" : 0,
       "lat" : "48.671",
       "lon" : "-126.848",
   	   "observedMaxTime"  : "",
"observedPosAmplitude" : "0.0",
"observedPosAmplitudeUnits" : "feet",
 "predictedPosAmplitude" : "0.0",
"predictedPosAmplitudeUnits" : "feet",
"predictedArrivalTime" : "2024-12-05T20:15:00Z" }, 
  
    {
       "id" : 94,
       "locationName" : "Sausalito",
       "locationCountry" : "United States",
       "siteSegmentID" : 1,
       "lat" : "37.860",
       "lon" : "-122.480",
   	   "observedMaxTime"  : "",
"observedPosAmplitude" : "0.0",
"observedPosAmplitudeUnits" : "feet",
 "predictedPosAmplitude" : "0.0",
"predictedPosAmplitudeUnits" : "feet",
"predictedArrivalTime" : "2024-12-05T20:15:00Z" }, 
  
    {
       "id" : 95,
       "locationName" : "Clatsop Spit",
       "locationCountry" : "United States",
       "siteSegmentID" : 0,
       "lat" : "46.220",
       "lon" : "-124.010",
   	   "observedMaxTime"  : "",
"observedPosAmplitude" : "0.0",
"observedPosAmplitudeUnits" : "feet",
 "predictedPosAmplitude" : "0.0",
"predictedPosAmplitudeUnits" : "feet",
"predictedArrivalTime" : "2024-12-05T20:20:00Z" }, 
  
    {
       "id" : 96,
       "locationName" : "Long Beach",
       "locationCountry" : "United States",
       "siteSegmentID" : 0,
       "lat" : "46.350",
       "lon" : "-124.070",
   	   "observedMaxTime"  : "",
"observedPosAmplitude" : "0.0",
"observedPosAmplitudeUnits" : "feet",
 "predictedPosAmplitude" : "0.0",
"predictedPosAmplitudeUnits" : "feet",
"predictedArrivalTime" : "2024-12-05T20:20:00Z" }, 
  
    {
       "id" : 97,
       "locationName" : "Pismo Beach",
       "locationCountry" : "United States",
       "siteSegmentID" : 0,
       "lat" : "35.140",
       "lon" : "-120.650",
   	   "observedMaxTime"  : "",
"observedPosAmplitude" : "0.0",
"observedPosAmplitudeUnits" : "feet",
 "predictedPosAmplitude" : "0.0",
"predictedPosAmplitudeUnits" : "feet",
"predictedArrivalTime" : "2024-12-05T20:20:00Z" }, 
  
    {
       "id" : 98,
       "locationName" : "Surf",
       "locationCountry" : "United States",
       "siteSegmentID" : 0,
       "lat" : "34.680",
       "lon" : "-120.620",
   	   "observedMaxTime"  : "",
"observedPosAmplitude" : "0.0",
"observedPosAmplitudeUnits" : "feet",
 "predictedPosAmplitude" : "0.0",
"predictedPosAmplitudeUnits" : "feet",
"predictedArrivalTime" : "2024-12-05T20:20:00Z" }, 
  
    {
       "id" : 99,
       "locationName" : "Gaviota",
       "locationCountry" : "United States",
       "siteSegmentID" : 0,
       "lat" : "34.470",
       "lon" : "-120.220",
   	   "observedMaxTime"  : "",
"observedPosAmplitude" : "0.0",
"observedPosAmplitudeUnits" : "feet",
 "predictedPosAmplitude" : "0.0",
"predictedPosAmplitudeUnits" : "feet",
"predictedArrivalTime" : "2024-12-05T20:20:00Z" }, 
  
    {
       "id" : 100,
       "locationName" : "Treasure Island Marina",
       "locationCountry" : "United States",
       "siteSegmentID" : 1,
       "lat" : "37.816",
       "lon" : "-122.370",
   	   "observedMaxTime"  : "",
"observedPosAmplitude" : "0.0",
"observedPosAmplitudeUnits" : "feet",
 "predictedPosAmplitude" : "0.0",
"predictedPosAmplitudeUnits" : "feet",
"predictedArrivalTime" : "2024-12-05T20:20:00Z" }, 
  
    {
       "id" : 101,
       "locationName" : "DART 46419",
       "locationCountry" : "United States",
       "siteSegmentID" : 0,
       "lat" : "48.769",
       "lon" : "-129.627",
   	   "observedMaxTime"  : "",
"observedPosAmplitude" : "0.0",
"observedPosAmplitudeUnits" : "feet",
 "predictedPosAmplitude" : "0.0",
"predictedPosAmplitudeUnits" : "feet",
"predictedArrivalTime" : "2024-12-05T20:25:00Z" }, 
  
    {
       "id" : 102,
       "locationName" : "Oakland Outer Harbor",
       "locationCountry" : "United States",
       "siteSegmentID" : 1,
       "lat" : "37.820",
       "lon" : "-122.320",
   	   "observedMaxTime"  : "",
"observedPosAmplitude" : "0.0",
"observedPosAmplitudeUnits" : "feet",
 "predictedPosAmplitude" : "0.0",
"predictedPosAmplitudeUnits" : "feet",
"predictedArrivalTime" : "2024-12-05T20:25:00Z" }, 
  
    {
       "id" : 103,
       "locationName" : "Lions Head",
       "locationCountry" : "United States",
       "siteSegmentID" : 0,
       "lat" : "34.870",
       "lon" : "-120.620",
   	   "observedMaxTime"  : "",
"observedPosAmplitude" : "0.0",
"observedPosAmplitudeUnits" : "feet",
 "predictedPosAmplitude" : "0.0",
"predictedPosAmplitudeUnits" : "feet",
"predictedArrivalTime" : "2024-12-05T20:25:00Z" }, 
  
    {
       "id" : 104,
       "locationName" : "Necanicum R. Mouth",
       "locationCountry" : "United States",
       "siteSegmentID" : 0,
       "lat" : "46.020",
       "lon" : "-123.930",
   	   "observedMaxTime"  : "",
"observedPosAmplitude" : "0.0",
"observedPosAmplitudeUnits" : "feet",
 "predictedPosAmplitude" : "0.0",
"predictedPosAmplitudeUnits" : "feet",
"predictedArrivalTime" : "2024-12-05T20:25:00Z" }, 
  
    {
       "id" : 105,
       "locationName" : "Seaside",
       "locationCountry" : "United States",
       "siteSegmentID" : 0,
       "lat" : "46.000",
       "lon" : "-123.933",
   	   "observedMaxTime"  : "",
"observedPosAmplitude" : "0.0",
"observedPosAmplitudeUnits" : "feet",
 "predictedPosAmplitude" : "0.0",
"predictedPosAmplitudeUnits" : "feet",
"predictedArrivalTime" : "2024-12-05T20:25:00Z" }, 
  
    {
       "id" : 106,
       "locationName" : "Santa Cruz Island",
       "locationCountry" : "United States",
       "siteSegmentID" : 0,
       "lat" : "33.950",
       "lon" : "-119.750",
   	   "observedMaxTime"  : "",
"observedPosAmplitude" : "0.0",
"observedPosAmplitudeUnits" : "feet",
 "predictedPosAmplitude" : "0.0",
"predictedPosAmplitudeUnits" : "feet",
"predictedArrivalTime" : "2024-12-05T20:25:00Z" }, 
  
    {
       "id" : 107,
       "locationName" : "Alameda",
       "locationCountry" : "United States",
       "siteSegmentID" : 1,
       "lat" : "37.780",
       "lon" : "-122.320",
   	   "observedMaxTime"  : "",
"observedPosAmplitude" : "0.0",
"observedPosAmplitudeUnits" : "feet",
 "predictedPosAmplitude" : "0.0",
"predictedPosAmplitudeUnits" : "feet",
"predictedArrivalTime" : "2024-12-05T20:25:00Z" }, 
  
    {
       "id" : 108,
       "locationName" : "Richmond",
       "locationCountry" : "United States",
       "siteSegmentID" : 1,
       "lat" : "37.928",
       "lon" : "-122.400",
   	   "observedMaxTime"  : "",
"observedPosAmplitude" : "0.0",
"observedPosAmplitudeUnits" : "feet",
 "predictedPosAmplitude" : "0.0",
"predictedPosAmplitudeUnits" : "feet",
"predictedArrivalTime" : "2024-12-05T20:25:00Z" }, 
  
    {
       "id" : 109,
       "locationName" : "Naples",
       "locationCountry" : "United States",
       "siteSegmentID" : 0,
       "lat" : "34.430",
       "lon" : "-119.950",
   	   "observedMaxTime"  : "",
"observedPosAmplitude" : "0.0",
"observedPosAmplitudeUnits" : "feet",
 "predictedPosAmplitude" : "0.0",
"predictedPosAmplitudeUnits" : "feet",
"predictedArrivalTime" : "2024-12-05T20:25:00Z" }, 
  
    {
       "id" : 110,
       "locationName" : "Seaside City",
       "locationCountry" : "United States",
       "siteSegmentID" : 0,
       "lat" : "45.993",
       "lon" : "-123.923",
   	   "observedMaxTime"  : "",
"observedPosAmplitude" : "0.0",
"observedPosAmplitudeUnits" : "feet",
 "predictedPosAmplitude" : "0.0",
"predictedPosAmplitudeUnits" : "feet",
"predictedArrivalTime" : "2024-12-05T20:25:00Z" }, 
  
    {
       "id" : 111,
       "locationName" : "Goleta",
       "locationCountry" : "United States",
       "siteSegmentID" : 0,
       "lat" : "34.414",
       "lon" : "-119.829",
   	   "observedMaxTime"  : "",
"observedPosAmplitude" : "0.0",
"observedPosAmplitudeUnits" : "feet",
 "predictedPosAmplitude" : "0.0",
"predictedPosAmplitudeUnits" : "feet",
"predictedArrivalTime" : "2024-12-05T20:30:00Z" }, 
  
    {
       "id" : 112,
       "locationName" : "Santa Barbara",
       "locationCountry" : "United States",
       "siteSegmentID" : 0,
       "lat" : "34.400",
       "lon" : "-119.700",
   	   "observedMaxTime"  : "",
"observedPosAmplitude" : "0.0",
"observedPosAmplitudeUnits" : "feet",
 "predictedPosAmplitude" : "0.0",
"predictedPosAmplitudeUnits" : "feet",
"predictedArrivalTime" : "2024-12-05T20:30:00Z" }, 
  
    {
       "id" : 113,
       "locationName" : "Westport",
       "locationCountry" : "United States",
       "siteSegmentID" : 0,
       "lat" : "46.899",
       "lon" : "-124.138",
   	   "observedMaxTime"  : "",
"observedPosAmplitude" : "0.0",
"observedPosAmplitudeUnits" : "feet",
 "predictedPosAmplitude" : "0.0",
"predictedPosAmplitudeUnits" : "feet",
"predictedArrivalTime" : "2024-12-05T20:30:00Z" }, 
  
    {
       "id" : 114,
       "locationName" : "Westport South Bay",
       "locationCountry" : "United States",
       "siteSegmentID" : 0,
       "lat" : "46.907",
       "lon" : "-124.107",
   	   "observedMaxTime"  : "",
"observedPosAmplitude" : "0.0",
"observedPosAmplitudeUnits" : "feet",
 "predictedPosAmplitude" : "0.0",
"predictedPosAmplitudeUnits" : "feet",
"predictedArrivalTime" : "2024-12-05T20:35:00Z" }, 
  
    {
       "id" : 115,
       "locationName" : "La Push",
       "locationCountry" : "United States",
       "siteSegmentID" : 0,
       "lat" : "47.913",
       "lon" : "-124.637",
   	   "observedMaxTime"  : "",
"observedPosAmplitude" : "0.0",
"observedPosAmplitudeUnits" : "feet",
 "predictedPosAmplitude" : "0.0",
"predictedPosAmplitudeUnits" : "feet",
"predictedArrivalTime" : "2024-12-05T20:35:00Z" }, 
  
    {
       "id" : 116,
       "locationName" : "Taholah",
       "locationCountry" : "United States",
       "siteSegmentID" : 0,
       "lat" : "47.347",
       "lon" : "-124.305",
   	   "observedMaxTime"  : "",
"observedPosAmplitude" : "0.0",
"observedPosAmplitudeUnits" : "feet",
 "predictedPosAmplitude" : "0.0",
"predictedPosAmplitudeUnits" : "feet",
"predictedArrivalTime" : "2024-12-05T20:35:00Z" }, 
  
    {
       "id" : 117,
       "locationName" : "Point Grenville",
       "locationCountry" : "United States",
       "siteSegmentID" : 0,
       "lat" : "47.310",
       "lon" : "-124.280",
   	   "observedMaxTime"  : "",
"observedPosAmplitude" : "0.0",
"observedPosAmplitudeUnits" : "feet",
 "predictedPosAmplitude" : "0.0",
"predictedPosAmplitudeUnits" : "feet",
"predictedArrivalTime" : "2024-12-05T20:35:00Z" }, 
  
    {
       "id" : 118,
       "locationName" : "Port Hueneme",
       "locationCountry" : "United States",
       "siteSegmentID" : 0,
       "lat" : "34.144",
       "lon" : "-119.214",
   	   "observedMaxTime"  : "",
"observedPosAmplitude" : "0.0",
"observedPosAmplitudeUnits" : "feet",
 "predictedPosAmplitude" : "0.0",
"predictedPosAmplitudeUnits" : "feet",
"predictedArrivalTime" : "2024-12-05T20:35:00Z" }, 
  
    {
       "id" : 119,
       "locationName" : "Hammond",
       "locationCountry" : "United States",
       "siteSegmentID" : 0,
       "lat" : "46.202",
       "lon" : "-123.945",
   	   "observedMaxTime"  : "",
"observedPosAmplitude" : "0.0",
"observedPosAmplitudeUnits" : "feet",
 "predictedPosAmplitude" : "0.0",
"predictedPosAmplitudeUnits" : "feet",
"predictedArrivalTime" : "2024-12-05T20:35:00Z" }, 
  
    {
       "id" : 120,
       "locationName" : "Queets",
       "locationCountry" : "United States",
       "siteSegmentID" : 0,
       "lat" : "47.534",
       "lon" : "-124.360",
   	   "observedMaxTime"  : "",
"observedPosAmplitude" : "0.0",
"observedPosAmplitudeUnits" : "feet",
 "predictedPosAmplitude" : "0.0",
"predictedPosAmplitudeUnits" : "feet",
"predictedArrivalTime" : "2024-12-05T20:35:00Z" }, 
  
    {
       "id" : 121,
       "locationName" : "Channel Islands Harbor",
       "locationCountry" : "United States",
       "siteSegmentID" : 0,
       "lat" : "34.154",
       "lon" : "-119.229",
   	   "observedMaxTime"  : "",
"observedPosAmplitude" : "0.0",
"observedPosAmplitudeUnits" : "feet",
 "predictedPosAmplitude" : "0.0",
"predictedPosAmplitudeUnits" : "feet",
"predictedArrivalTime" : "2024-12-05T20:40:00Z" }, 
  
    {
       "id" : 122,
       "locationName" : "The Wash./BC Border",
       "locationCountry" : "United States",
       "siteSegmentID" : 0,
       "lat" : "48.380",
       "lon" : "-124.717",
   	   "observedMaxTime"  : "",
"observedPosAmplitude" : "0.0",
"observedPosAmplitudeUnits" : "feet",
 "predictedPosAmplitude" : "0.0",
"predictedPosAmplitudeUnits" : "feet",
"predictedArrivalTime" : "2024-12-05T20:40:00Z" }, 
  
    {
       "id" : 123,
       "locationName" : "Rincon Point",
       "locationCountry" : "United States",
       "siteSegmentID" : 0,
       "lat" : "34.372",
       "lon" : "-119.478",
   	   "observedMaxTime"  : "",
"observedPosAmplitude" : "0.0",
"observedPosAmplitudeUnits" : "feet",
 "predictedPosAmplitude" : "0.0",
"predictedPosAmplitudeUnits" : "feet",
"predictedArrivalTime" : "2024-12-05T20:40:00Z" }, 
  
    {
       "id" : 124,
       "locationName" : "North San Clemente Is.",
       "locationCountry" : "United States",
       "siteSegmentID" : 0,
       "lat" : "33.023",
       "lon" : "-118.609",
   	   "observedMaxTime"  : "",
"observedPosAmplitude" : "0.0",
"observedPosAmplitudeUnits" : "feet",
 "predictedPosAmplitude" : "0.0",
"predictedPosAmplitudeUnits" : "feet",
"predictedArrivalTime" : "2024-12-05T20:40:00Z" }, 
  
    {
       "id" : 125,
       "locationName" : "Hoh",
       "locationCountry" : "United States",
       "siteSegmentID" : 0,
       "lat" : "47.748",
       "lon" : "-124.439",
   	   "observedMaxTime"  : "",
"observedPosAmplitude" : "0.0",
"observedPosAmplitudeUnits" : "feet",
 "predictedPosAmplitude" : "0.0",
"predictedPosAmplitudeUnits" : "feet",
"predictedArrivalTime" : "2024-12-05T20:40:00Z" }, 
  
    {
       "id" : 126,
       "locationName" : "Carpinteria",
       "locationCountry" : "United States",
       "siteSegmentID" : 0,
       "lat" : "34.380",
       "lon" : "-119.520",
   	   "observedMaxTime"  : "",
"observedPosAmplitude" : "0.0",
"observedPosAmplitudeUnits" : "feet",
 "predictedPosAmplitude" : "0.0",
"predictedPosAmplitudeUnits" : "feet",
"predictedArrivalTime" : "2024-12-05T20:40:00Z" }, 
  
    {
       "id" : 127,
       "locationName" : "Moclips",
       "locationCountry" : "United States",
       "siteSegmentID" : 0,
       "lat" : "47.230",
       "lon" : "-124.220",
   	   "observedMaxTime"  : "",
"observedPosAmplitude" : "0.0",
"observedPosAmplitudeUnits" : "feet",
 "predictedPosAmplitude" : "0.0",
"predictedPosAmplitudeUnits" : "feet",
"predictedArrivalTime" : "2024-12-05T20:40:00Z" }, 
  
    {
       "id" : 128,
       "locationName" : "Redondo Beach",
       "locationCountry" : "United States",
       "siteSegmentID" : 0,
       "lat" : "33.850",
       "lon" : "-118.400",
   	   "observedMaxTime"  : "",
"observedPosAmplitude" : "0.0",
"observedPosAmplitudeUnits" : "feet",
 "predictedPosAmplitude" : "0.0",
"predictedPosAmplitudeUnits" : "feet",
"predictedArrivalTime" : "2024-12-05T20:45:00Z" }, 
  
    {
       "id" : 129,
       "locationName" : "Neah Bay",
       "locationCountry" : "United States",
       "siteSegmentID" : 0,
       "lat" : "48.367",
       "lon" : "-124.617",
   	   "observedMaxTime"  : "",
"observedPosAmplitude" : "0.0",
"observedPosAmplitudeUnits" : "feet",
 "predictedPosAmplitude" : "0.0",
"predictedPosAmplitudeUnits" : "feet",
"predictedArrivalTime" : "2024-12-05T20:45:00Z" }, 
  
    {
       "id" : 130,
       "locationName" : "Malibu",
       "locationCountry" : "United States",
       "siteSegmentID" : 0,
       "lat" : "34.030",
       "lon" : "-118.670",
   	   "observedMaxTime"  : "",
"observedPosAmplitude" : "0.0",
"observedPosAmplitudeUnits" : "feet",
 "predictedPosAmplitude" : "0.0",
"predictedPosAmplitudeUnits" : "feet",
"predictedArrivalTime" : "2024-12-05T20:45:00Z" }, 
  
    {
       "id" : 131,
       "locationName" : "Two Harbors",
       "locationCountry" : "United States",
       "siteSegmentID" : 0,
       "lat" : "33.443",
       "lon" : "-118.497",
   	   "observedMaxTime"  : "",
"observedPosAmplitude" : "0.0",
"observedPosAmplitudeUnits" : "feet",
 "predictedPosAmplitude" : "0.0",
"predictedPosAmplitudeUnits" : "feet",
"predictedArrivalTime" : "2024-12-05T20:45:00Z" }, 
  
    {
       "id" : 132,
       "locationName" : "Two Harbors (west)",
       "locationCountry" : "United States",
       "siteSegmentID" : 0,
       "lat" : "33.431",
       "lon" : "-118.507",
   	   "observedMaxTime"  : "",
"observedPosAmplitude" : "0.0",
"observedPosAmplitudeUnits" : "feet",
 "predictedPosAmplitude" : "0.0",
"predictedPosAmplitudeUnits" : "feet",
"predictedArrivalTime" : "2024-12-05T20:45:00Z" }, 
  
    {
       "id" : 133,
       "locationName" : "Waatch",
       "locationCountry" : "United States",
       "siteSegmentID" : 0,
       "lat" : "48.337",
       "lon" : "-124.676",
   	   "observedMaxTime"  : "",
"observedPosAmplitude" : "0.0",
"observedPosAmplitudeUnits" : "feet",
 "predictedPosAmplitude" : "0.0",
"predictedPosAmplitudeUnits" : "feet",
"predictedArrivalTime" : "2024-12-05T20:45:00Z" }, 
  
    {
       "id" : 134,
       "locationName" : "Matlahaw Point",
       "locationCountry" : "Canada",
       "siteSegmentID" : 0,
       "lat" : "49.370",
       "lon" : "-126.470",
   	   "observedMaxTime"  : "",
"observedPosAmplitude" : "0.0",
"observedPosAmplitudeUnits" : "feet",
 "predictedPosAmplitude" : "0.0",
"predictedPosAmplitudeUnits" : "feet",
"predictedArrivalTime" : "2024-12-05T20:45:00Z" }, 
  
    {
       "id" : 135,
       "locationName" : "Avalon",
       "locationCountry" : "United States",
       "siteSegmentID" : 0,
       "lat" : "33.346",
       "lon" : "-118.323",
   	   "observedMaxTime"  : "",
"observedPosAmplitude" : "0.0",
"observedPosAmplitudeUnits" : "feet",
 "predictedPosAmplitude" : "0.0",
"predictedPosAmplitudeUnits" : "feet",
"predictedArrivalTime" : "2024-12-05T20:50:00Z" }, 
  
    {
       "id" : 136,
       "locationName" : "Ventura",
       "locationCountry" : "United States",
       "siteSegmentID" : 0,
       "lat" : "34.252",
       "lon" : "-119.267",
   	   "observedMaxTime"  : "",
"observedPosAmplitude" : "0.0",
"observedPosAmplitudeUnits" : "feet",
 "predictedPosAmplitude" : "0.0",
"predictedPosAmplitudeUnits" : "feet",
"predictedArrivalTime" : "2024-12-05T20:50:00Z" }, 
  
    {
       "id" : 137,
       "locationName" : "Toke Point",
       "locationCountry" : "United States",
       "siteSegmentID" : 0,
       "lat" : "46.708",
       "lon" : "-123.967",
   	   "observedMaxTime"  : "",
"observedPosAmplitude" : "0.0",
"observedPosAmplitudeUnits" : "feet",
 "predictedPosAmplitude" : "0.0",
"predictedPosAmplitudeUnits" : "feet",
"predictedArrivalTime" : "2024-12-05T20:50:00Z" }, 
  
    {
       "id" : 138,
       "locationName" : "Folger Deep",
       "locationCountry" : "Canada",
       "siteSegmentID" : 0,
       "lat" : "48.814",
       "lon" : "-125.281",
   	   "observedMaxTime"  : "",
"observedPosAmplitude" : "0.0",
"observedPosAmplitudeUnits" : "feet",
 "predictedPosAmplitude" : "0.0",
"predictedPosAmplitudeUnits" : "feet",
"predictedArrivalTime" : "2024-12-05T20:50:00Z" }, 
  
    {
       "id" : 139,
       "locationName" : "Neptune05",
       "locationCountry" : "Canada",
       "siteSegmentID" : 0,
       "lat" : "48.814",
       "lon" : "-125.281",
   	   "observedMaxTime"  : "",
"observedPosAmplitude" : "0.0",
"observedPosAmplitudeUnits" : "feet",
 "predictedPosAmplitude" : "0.0",
"predictedPosAmplitudeUnits" : "feet",
"predictedArrivalTime" : "2024-12-05T20:50:00Z" }, 
  
    {
       "id" : 140,
       "locationName" : "Astoria",
       "locationCountry" : "United States",
       "siteSegmentID" : 0,
       "lat" : "46.193",
       "lon" : "-123.810",
   	   "observedMaxTime"  : "",
"observedPosAmplitude" : "0.0",
"observedPosAmplitudeUnits" : "feet",
 "predictedPosAmplitude" : "0.0",
"predictedPosAmplitudeUnits" : "feet",
"predictedArrivalTime" : "2024-12-05T20:50:00Z" }, 
  
    {
       "id" : 141,
       "locationName" : "Santa Monica",
       "locationCountry" : "United States",
       "siteSegmentID" : 0,
       "lat" : "34.000",
       "lon" : "-118.500",
   	   "observedMaxTime"  : "",
"observedPosAmplitude" : "0.0",
"observedPosAmplitudeUnits" : "feet",
 "predictedPosAmplitude" : "0.0",
"predictedPosAmplitudeUnits" : "feet",
"predictedArrivalTime" : "2024-12-05T20:50:00Z" }, 
  
    {
       "id" : 142,
       "locationName" : "Los Angeles Harbor",
       "locationCountry" : "United States",
       "siteSegmentID" : 0,
       "lat" : "33.703",
       "lon" : "-118.273",
   	   "observedMaxTime"  : "",
"observedPosAmplitude" : "0.0",
"observedPosAmplitudeUnits" : "feet",
 "predictedPosAmplitude" : "0.0",
"predictedPosAmplitudeUnits" : "feet",
"predictedArrivalTime" : "2024-12-05T20:50:00Z" }, 
  
    {
       "id" : 143,
       "locationName" : "Tofino",
       "locationCountry" : "Canada",
       "siteSegmentID" : 0,
       "lat" : "49.150",
       "lon" : "-125.917",
   	   "observedMaxTime"  : "",
"observedPosAmplitude" : "0.0",
"observedPosAmplitudeUnits" : "feet",
 "predictedPosAmplitude" : "0.0",
"predictedPosAmplitudeUnits" : "feet",
"predictedArrivalTime" : "2024-12-05T20:55:00Z" }, 
  
    {
       "id" : 144,
       "locationName" : "Dana Point",
       "locationCountry" : "United States",
       "siteSegmentID" : 0,
       "lat" : "33.455",
       "lon" : "-117.690",
   	   "observedMaxTime"  : "",
"observedPosAmplitude" : "0.0",
"observedPosAmplitudeUnits" : "feet",
 "predictedPosAmplitude" : "0.0",
"predictedPosAmplitudeUnits" : "feet",
"predictedArrivalTime" : "2024-12-05T20:55:00Z" }, 
  
    {
       "id" : 145,
       "locationName" : "Middle Harbor",
       "locationCountry" : "United States",
       "siteSegmentID" : 0,
       "lat" : "33.750",
       "lon" : "-118.230",
   	   "observedMaxTime"  : "",
"observedPosAmplitude" : "0.0",
"observedPosAmplitudeUnits" : "feet",
 "predictedPosAmplitude" : "0.0",
"predictedPosAmplitudeUnits" : "feet",
"predictedArrivalTime" : "2024-12-05T20:55:00Z" }, 
  
    {
       "id" : 146,
       "locationName" : "North Vancouver Island",
       "locationCountry" : "Canada",
       "siteSegmentID" : 0,
       "lat" : "50.767",
       "lon" : "-128.417",
   	   "observedMaxTime"  : "",
"observedPosAmplitude" : "0.0",
"observedPosAmplitudeUnits" : "feet",
 "predictedPosAmplitude" : "0.0",
"predictedPosAmplitudeUnits" : "feet",
"predictedArrivalTime" : "2024-12-05T20:55:00Z" }, 
  
    {
       "id" : 147,
       "locationName" : "Winter Harbour",
       "locationCountry" : "Canada",
       "siteSegmentID" : 0,
       "lat" : "50.770",
       "lon" : "-128.420",
   	   "observedMaxTime"  : "",
"observedPosAmplitude" : "0.0",
"observedPosAmplitudeUnits" : "feet",
 "predictedPosAmplitude" : "0.0",
"predictedPosAmplitudeUnits" : "feet",
"predictedArrivalTime" : "2024-12-05T20:55:00Z" }, 
  
    {
       "id" : 148,
       "locationName" : "Newport Beach",
       "locationCountry" : "United States",
       "siteSegmentID" : 0,
       "lat" : "33.614",
       "lon" : "-117.938",
   	   "observedMaxTime"  : "",
"observedPosAmplitude" : "0.0",
"observedPosAmplitudeUnits" : "feet",
 "predictedPosAmplitude" : "0.0",
"predictedPosAmplitudeUnits" : "feet",
"predictedArrivalTime" : "2024-12-05T20:55:00Z" }, 
  
    {
       "id" : 149,
       "locationName" : "Laguna Beach",
       "locationCountry" : "United States",
       "siteSegmentID" : 0,
       "lat" : "33.530",
       "lon" : "-117.780",
   	   "observedMaxTime"  : "",
"observedPosAmplitude" : "0.0",
"observedPosAmplitudeUnits" : "feet",
 "predictedPosAmplitude" : "0.0",
"predictedPosAmplitudeUnits" : "feet",
"predictedArrivalTime" : "2024-12-05T20:55:00Z" }, 
  
    {
       "id" : 150,
       "locationName" : "La Jolla",
       "locationCountry" : "United States",
       "siteSegmentID" : 0,
       "lat" : "32.850",
       "lon" : "-117.270",
   	   "observedMaxTime"  : "",
"observedPosAmplitude" : "0.0",
"observedPosAmplitudeUnits" : "feet",
 "predictedPosAmplitude" : "0.0",
"predictedPosAmplitudeUnits" : "feet",
"predictedArrivalTime" : "2024-12-05T21:00:00Z" }, 
  
    {
       "id" : 151,
       "locationName" : "Mission Bay",
       "locationCountry" : "United States",
       "siteSegmentID" : 0,
       "lat" : "32.766",
       "lon" : "-117.258",
   	   "observedMaxTime"  : "",
"observedPosAmplitude" : "0.0",
"observedPosAmplitudeUnits" : "feet",
 "predictedPosAmplitude" : "0.0",
"predictedPosAmplitudeUnits" : "feet",
"predictedArrivalTime" : "2024-12-05T21:00:00Z" }, 
  
    {
       "id" : 152,
       "locationName" : "Encinitas",
       "locationCountry" : "United States",
       "siteSegmentID" : 0,
       "lat" : "33.030",
       "lon" : "-117.300",
   	   "observedMaxTime"  : "",
"observedPosAmplitude" : "0.0",
"observedPosAmplitudeUnits" : "feet",
 "predictedPosAmplitude" : "0.0",
"predictedPosAmplitudeUnits" : "feet",
"predictedArrivalTime" : "2024-12-05T21:00:00Z" }, 
  
    {
       "id" : 153,
       "locationName" : "Orange/San Diego Line",
       "locationCountry" : "United States",
       "siteSegmentID" : 0,
       "lat" : "33.385",
       "lon" : "-117.596",
   	   "observedMaxTime"  : "",
"observedPosAmplitude" : "0.0",
"observedPosAmplitudeUnits" : "feet",
 "predictedPosAmplitude" : "0.0",
"predictedPosAmplitudeUnits" : "feet",
"predictedArrivalTime" : "2024-12-05T21:00:00Z" }, 
  
    {
       "id" : 154,
       "locationName" : "Oceanside",
       "locationCountry" : "United States",
       "siteSegmentID" : 0,
       "lat" : "33.204",
       "lon" : "-117.401",
   	   "observedMaxTime"  : "",
"observedPosAmplitude" : "0.0",
"observedPosAmplitudeUnits" : "feet",
 "predictedPosAmplitude" : "0.0",
"predictedPosAmplitudeUnits" : "feet",
"predictedArrivalTime" : "2024-12-05T21:00:00Z" }, 
  
    {
       "id" : 155,
       "locationName" : "Long Beach",
       "locationCountry" : "United States",
       "siteSegmentID" : 0,
       "lat" : "33.757",
       "lon" : "-118.155",
   	   "observedMaxTime"  : "",
"observedPosAmplitude" : "0.0",
"observedPosAmplitudeUnits" : "feet",
 "predictedPosAmplitude" : "0.0",
"predictedPosAmplitudeUnits" : "feet",
"predictedArrivalTime" : "2024-12-05T21:00:00Z" }, 
  
    {
       "id" : 156,
       "locationName" : "Mare Island",
       "locationCountry" : "United States",
       "siteSegmentID" : 1,
       "lat" : "38.070",
       "lon" : "-122.250",
   	   "observedMaxTime"  : "",
"observedPosAmplitude" : "0.0",
"observedPosAmplitudeUnits" : "feet",
 "predictedPosAmplitude" : "0.0",
"predictedPosAmplitudeUnits" : "feet",
"predictedArrivalTime" : "2024-12-05T21:00:00Z" }, 
  
    {
       "id" : 157,
       "locationName" : "Huntington Beach",
       "locationCountry" : "United States",
       "siteSegmentID" : 0,
       "lat" : "33.650",
       "lon" : "-118.000",
   	   "observedMaxTime"  : "",
"observedPosAmplitude" : "0.0",
"observedPosAmplitudeUnits" : "feet",
 "predictedPosAmplitude" : "0.0",
"predictedPosAmplitudeUnits" : "feet",
"predictedArrivalTime" : "2024-12-05T21:00:00Z" }, 
  
    {
       "id" : 158,
       "locationName" : "Port Chicago",
       "locationCountry" : "United States",
       "siteSegmentID" : 1,
       "lat" : "38.057",
       "lon" : "-122.038",
   	   "observedMaxTime"  : "",
"observedPosAmplitude" : "0.0",
"observedPosAmplitudeUnits" : "feet",
 "predictedPosAmplitude" : "0.0",
"predictedPosAmplitudeUnits" : "feet",
"predictedArrivalTime" : "2024-12-05T21:05:00Z" }, 
  
    {
       "id" : 159,
       "locationName" : "Port Sonoma Marina",
       "locationCountry" : "United States",
       "siteSegmentID" : 1,
       "lat" : "38.105",
       "lon" : "-122.476",
   	   "observedMaxTime"  : "",
"observedPosAmplitude" : "0.0",
"observedPosAmplitudeUnits" : "feet",
 "predictedPosAmplitude" : "0.0",
"predictedPosAmplitudeUnits" : "feet",
"predictedArrivalTime" : "2024-12-05T21:05:00Z" }, 
  
    {
       "id" : 160,
       "locationName" : "Point Loma",
       "locationCountry" : "United States",
       "siteSegmentID" : 0,
       "lat" : "32.660",
       "lon" : "-117.240",
   	   "observedMaxTime"  : "",
"observedPosAmplitude" : "0.0",
"observedPosAmplitudeUnits" : "feet",
 "predictedPosAmplitude" : "0.0",
"predictedPosAmplitudeUnits" : "feet",
"predictedArrivalTime" : "2024-12-05T21:05:00Z" }, 
  
    {
       "id" : 161,
       "locationName" : "Ballast Point",
       "locationCountry" : "United States",
       "siteSegmentID" : 0,
       "lat" : "32.680",
       "lon" : "-117.230",
   	   "observedMaxTime"  : "",
"observedPosAmplitude" : "0.0",
"observedPosAmplitudeUnits" : "feet",
 "predictedPosAmplitude" : "0.0",
"predictedPosAmplitudeUnits" : "feet",
"predictedArrivalTime" : "2024-12-05T21:05:00Z" }, 
  
    {
       "id" : 162,
       "locationName" : "San Diego Harbor Ent.",
       "locationCountry" : "United States",
       "siteSegmentID" : 0,
       "lat" : "32.680",
       "lon" : "-117.230",
   	   "observedMaxTime"  : "",
"observedPosAmplitude" : "0.0",
"observedPosAmplitudeUnits" : "feet",
 "predictedPosAmplitude" : "0.0",
"predictedPosAmplitudeUnits" : "feet",
"predictedArrivalTime" : "2024-12-05T21:05:00Z" }, 
  
    {
       "id" : 163,
       "locationName" : "Seal Beach",
       "locationCountry" : "United States",
       "siteSegmentID" : 0,
       "lat" : "33.740",
       "lon" : "-118.100",
   	   "observedMaxTime"  : "",
"observedPosAmplitude" : "0.0",
"observedPosAmplitudeUnits" : "feet",
 "predictedPosAmplitude" : "0.0",
"predictedPosAmplitudeUnits" : "feet",
"predictedArrivalTime" : "2024-12-05T21:05:00Z" }, 
  
    {
       "id" : 164,
       "locationName" : "The Cal./Mexico Border",
       "locationCountry" : "United States",
       "siteSegmentID" : 0,
       "lat" : "32.520",
       "lon" : "-117.130",
   	   "observedMaxTime"  : "",
"observedPosAmplitude" : "0.0",
"observedPosAmplitudeUnits" : "feet",
 "predictedPosAmplitude" : "0.0",
"predictedPosAmplitudeUnits" : "feet",
"predictedArrivalTime" : "2024-12-05T21:10:00Z" }, 
  
    {
       "id" : 165,
       "locationName" : "San Carlos",
       "locationCountry" : "United States",
       "siteSegmentID" : 1,
       "lat" : "37.556",
       "lon" : "-122.206",
   	   "observedMaxTime"  : "",
"observedPosAmplitude" : "0.0",
"observedPosAmplitudeUnits" : "feet",
 "predictedPosAmplitude" : "0.0",
"predictedPosAmplitudeUnits" : "feet",
"predictedArrivalTime" : "2024-12-05T21:10:00Z" }, 
  
    {
       "id" : 166,
       "locationName" : "Bamfield",
       "locationCountry" : "Canada",
       "siteSegmentID" : 0,
       "lat" : "48.840",
       "lon" : "-125.140",
   	   "observedMaxTime"  : "",
"observedPosAmplitude" : "0.0",
"observedPosAmplitudeUnits" : "feet",
 "predictedPosAmplitude" : "0.0",
"predictedPosAmplitudeUnits" : "feet",
"predictedArrivalTime" : "2024-12-05T21:10:00Z" }, 
  
    {
       "id" : 167,
       "locationName" : "North Island",
       "locationCountry" : "United States",
       "siteSegmentID" : 0,
       "lat" : "32.680",
       "lon" : "-117.190",
   	   "observedMaxTime"  : "",
"observedPosAmplitude" : "0.0",
"observedPosAmplitudeUnits" : "feet",
 "predictedPosAmplitude" : "0.0",
"predictedPosAmplitudeUnits" : "feet",
"predictedArrivalTime" : "2024-12-05T21:10:00Z" }, 
  
    {
       "id" : 168,
       "locationName" : "North Imperial Beach",
       "locationCountry" : "United States",
       "siteSegmentID" : 0,
       "lat" : "32.590",
       "lon" : "-117.130",
   	   "observedMaxTime"  : "",
"observedPosAmplitude" : "0.0",
"observedPosAmplitudeUnits" : "feet",
 "predictedPosAmplitude" : "0.0",
"predictedPosAmplitudeUnits" : "feet",
"predictedArrivalTime" : "2024-12-05T21:10:00Z" }, 
  
    {
       "id" : 169,
       "locationName" : "Redwood City",
       "locationCountry" : "United States",
       "siteSegmentID" : 1,
       "lat" : "37.507",
       "lon" : "-122.210",
   	   "observedMaxTime"  : "",
"observedPosAmplitude" : "0.0",
"observedPosAmplitudeUnits" : "feet",
 "predictedPosAmplitude" : "0.0",
"predictedPosAmplitudeUnits" : "feet",
"predictedArrivalTime" : "2024-12-05T21:15:00Z" }, 
  
    {
       "id" : 170,
       "locationName" : "San Diego",
       "locationCountry" : "United States",
       "siteSegmentID" : 0,
       "lat" : "32.714",
       "lon" : "-117.177",
   	   "observedMaxTime"  : "",
"observedPosAmplitude" : "0.0",
"observedPosAmplitudeUnits" : "feet",
 "predictedPosAmplitude" : "0.0",
"predictedPosAmplitudeUnits" : "feet",
"predictedArrivalTime" : "2024-12-05T21:15:00Z" }, 
  
    {
       "id" : 171,
       "locationName" : "K Pier, NAS Coronado",
       "locationCountry" : "United States",
       "siteSegmentID" : 0,
       "lat" : "32.711",
       "lon" : "-117.186",
   	   "observedMaxTime"  : "",
"observedPosAmplitude" : "0.0",
"observedPosAmplitudeUnits" : "feet",
 "predictedPosAmplitude" : "0.0",
"predictedPosAmplitudeUnits" : "feet",
"predictedArrivalTime" : "2024-12-05T21:15:00Z" }, 
  
    {
       "id" : 172,
       "locationName" : "Naval Station",
       "locationCountry" : "United States",
       "siteSegmentID" : 0,
       "lat" : "32.670",
       "lon" : "-117.120",
   	   "observedMaxTime"  : "",
"observedPosAmplitude" : "0.0",
"observedPosAmplitudeUnits" : "feet",
 "predictedPosAmplitude" : "0.0",
"predictedPosAmplitudeUnits" : "feet",
"predictedArrivalTime" : "2024-12-05T21:20:00Z" }, 
  
    {
       "id" : 173,
       "locationName" : "Patricia Bay",
       "locationCountry" : "Canada",
       "siteSegmentID" : 0,
       "lat" : "48.400",
       "lon" : "-123.400",
   	   "observedMaxTime"  : "",
"observedPosAmplitude" : "0.0",
"observedPosAmplitudeUnits" : "feet",
 "predictedPosAmplitude" : "0.0",
"predictedPosAmplitudeUnits" : "feet",
"predictedArrivalTime" : "2024-12-05T21:20:00Z" }, 
  
    {
       "id" : 174,
       "locationName" : "Port Angeles",
       "locationCountry" : "United States",
       "siteSegmentID" : 0,
       "lat" : "48.125",
       "lon" : "-123.440",
   	   "observedMaxTime"  : "",
"observedPosAmplitude" : "0.0",
"observedPosAmplitudeUnits" : "feet",
 "predictedPosAmplitude" : "0.0",
"predictedPosAmplitudeUnits" : "feet",
"predictedArrivalTime" : "2024-12-05T21:20:00Z" }, 
  
    {
       "id" : 175,
       "locationName" : "Victoria Harbor",
       "locationCountry" : "Canada",
       "siteSegmentID" : 0,
       "lat" : "48.420",
       "lon" : "-123.370",
   	   "observedMaxTime"  : "",
"observedPosAmplitude" : "0.0",
"observedPosAmplitudeUnits" : "feet",
 "predictedPosAmplitude" : "0.0",
"predictedPosAmplitudeUnits" : "feet",
"predictedArrivalTime" : "2024-12-05T21:25:00Z" }, 
  
    {
       "id" : 176,
       "locationName" : "Alviso",
       "locationCountry" : "United States",
       "siteSegmentID" : 1,
       "lat" : "37.465",
       "lon" : "-122.062",
   	   "observedMaxTime"  : "",
"observedPosAmplitude" : "0.0",
"observedPosAmplitudeUnits" : "feet",
 "predictedPosAmplitude" : "0.0",
"predictedPosAmplitudeUnits" : "feet",
"predictedArrivalTime" : "2024-12-05T21:40:00Z" }, 
  
    {
       "id" : 177,
       "locationName" : "The BC/Alaska Border",
       "locationCountry" : "United States",
       "siteSegmentID" : 0,
       "lat" : "54.428",
       "lon" : "-133.404",
   	   "observedMaxTime"  : "",
"observedPosAmplitude" : "0.0",
"observedPosAmplitudeUnits" : "feet",
 "predictedPosAmplitude" : "0.0",
"predictedPosAmplitudeUnits" : "feet",
"predictedArrivalTime" : "2024-12-05T21:40:00Z" }, 
  
    {
       "id" : 178,
       "locationName" : "Whidbey Island",
       "locationCountry" : "United States",
       "siteSegmentID" : 0,
       "lat" : "48.260",
       "lon" : "-122.760",
   	   "observedMaxTime"  : "",
"observedPosAmplitude" : "0.0",
"observedPosAmplitudeUnits" : "feet",
 "predictedPosAmplitude" : "0.0",
"predictedPosAmplitudeUnits" : "feet",
"predictedArrivalTime" : "2024-12-05T21:40:00Z" }, 
  
    {
       "id" : 179,
       "locationName" : "Langara",
       "locationCountry" : "Canada",
       "siteSegmentID" : 0,
       "lat" : "54.267",
       "lon" : "-133.067",
   	   "observedMaxTime"  : "",
"observedPosAmplitude" : "0.0",
"observedPosAmplitudeUnits" : "feet",
 "predictedPosAmplitude" : "0.0",
"predictedPosAmplitudeUnits" : "feet",
"predictedArrivalTime" : "2024-12-05T21:45:00Z" }, 
  
    {
       "id" : 180,
       "locationName" : "Friday Harbor",
       "locationCountry" : "United States",
       "siteSegmentID" : 0,
       "lat" : "48.547",
       "lon" : "-123.007",
   	   "observedMaxTime"  : "",
"observedPosAmplitude" : "0.0",
"observedPosAmplitudeUnits" : "feet",
 "predictedPosAmplitude" : "0.0",
"predictedPosAmplitudeUnits" : "feet",
"predictedArrivalTime" : "2024-12-05T21:45:00Z" }, 
  
    {
       "id" : 181,
       "locationName" : "White Point",
       "locationCountry" : "Canada",
       "siteSegmentID" : 0,
       "lat" : "54.000",
       "lon" : "-133.130",
   	   "observedMaxTime"  : "",
"observedPosAmplitude" : "0.0",
"observedPosAmplitudeUnits" : "feet",
 "predictedPosAmplitude" : "0.0",
"predictedPosAmplitudeUnits" : "feet",
"predictedArrivalTime" : "2024-12-05T21:45:00Z" }, 
  
    {
       "id" : 182,
       "locationName" : "Port Townsend",
       "locationCountry" : "United States",
       "siteSegmentID" : 0,
       "lat" : "48.101",
       "lon" : "-122.758",
   	   "observedMaxTime"  : "",
"observedPosAmplitude" : "0.0",
"observedPosAmplitudeUnits" : "feet",
 "predictedPosAmplitude" : "0.0",
"predictedPosAmplitudeUnits" : "feet",
"predictedArrivalTime" : "2024-12-05T21:50:00Z" }, 
  
    {
       "id" : 183,
       "locationName" : "Eastsound",
       "locationCountry" : "United States",
       "siteSegmentID" : 0,
       "lat" : "48.693",
       "lon" : "-122.907",
   	   "observedMaxTime"  : "",
"observedPosAmplitude" : "0.0",
"observedPosAmplitudeUnits" : "feet",
 "predictedPosAmplitude" : "0.0",
"predictedPosAmplitudeUnits" : "feet",
"predictedArrivalTime" : "2024-12-05T21:55:00Z" }, 
  
    {
       "id" : 184,
       "locationName" : "Oak Harbor",
       "locationCountry" : "United States",
       "siteSegmentID" : 0,
       "lat" : "48.287",
       "lon" : "-122.622",
   	   "observedMaxTime"  : "",
"observedPosAmplitude" : "0.0",
"observedPosAmplitudeUnits" : "feet",
 "predictedPosAmplitude" : "0.0",
"predictedPosAmplitudeUnits" : "feet",
"predictedArrivalTime" : "2024-12-05T22:00:00Z" }, 
  
    {
       "id" : 185,
       "locationName" : "Port Hardy",
       "locationCountry" : "Canada",
       "siteSegmentID" : 0,
       "lat" : "50.720",
       "lon" : "-127.490",
   	   "observedMaxTime"  : "",
"observedPosAmplitude" : "0.0",
"observedPosAmplitudeUnits" : "feet",
 "predictedPosAmplitude" : "0.0",
"predictedPosAmplitudeUnits" : "feet",
"predictedArrivalTime" : "2024-12-05T22:00:00Z" }, 
  
    {
       "id" : 186,
       "locationName" : "Anacortes",
       "locationCountry" : "United States",
       "siteSegmentID" : 0,
       "lat" : "48.522",
       "lon" : "-122.617",
   	   "observedMaxTime"  : "",
"observedPosAmplitude" : "0.0",
"observedPosAmplitudeUnits" : "feet",
 "predictedPosAmplitude" : "0.0",
"predictedPosAmplitudeUnits" : "feet",
"predictedArrivalTime" : "2024-12-05T22:00:00Z" }, 
  
    {
       "id" : 187,
       "locationName" : "Indian Island",
       "locationCountry" : "United States",
       "siteSegmentID" : 0,
       "lat" : "48.051",
       "lon" : "-122.744",
   	   "observedMaxTime"  : "",
"observedPosAmplitude" : "0.0",
"observedPosAmplitudeUnits" : "feet",
 "predictedPosAmplitude" : "0.0",
"predictedPosAmplitudeUnits" : "feet",
"predictedArrivalTime" : "2024-12-05T22:00:00Z" }, 
  
    {
       "id" : 188,
       "locationName" : "Cherry Point",
       "locationCountry" : "United States",
       "siteSegmentID" : 0,
       "lat" : "48.863",
       "lon" : "-122.758",
   	   "observedMaxTime"  : "",
"observedPosAmplitude" : "0.0",
"observedPosAmplitudeUnits" : "feet",
 "predictedPosAmplitude" : "0.0",
"predictedPosAmplitudeUnits" : "feet",
"predictedArrivalTime" : "2024-12-05T22:10:00Z" }, 
  
    {
       "id" : 189,
       "locationName" : "Port Alexander",
       "locationCountry" : "United States",
       "siteSegmentID" : 0,
       "lat" : "56.250",
       "lon" : "-134.650",
   	   "observedMaxTime"  : "",
"observedPosAmplitude" : "0.0",
"observedPosAmplitudeUnits" : "feet",
 "predictedPosAmplitude" : "0.0",
"predictedPosAmplitudeUnits" : "feet",
"predictedArrivalTime" : "2024-12-05T22:10:00Z" }, 
  
    {
       "id" : 190,
       "locationName" : "Bellingham",
       "locationCountry" : "United States",
       "siteSegmentID" : 0,
       "lat" : "48.750",
       "lon" : "-122.500",
   	   "observedMaxTime"  : "",
"observedPosAmplitude" : "0.0",
"observedPosAmplitudeUnits" : "feet",
 "predictedPosAmplitude" : "0.0",
"predictedPosAmplitudeUnits" : "feet",
"predictedArrivalTime" : "2024-12-05T22:15:00Z" }, 
  
    {
       "id" : 191,
       "locationName" : "DART 46409",
       "locationCountry" : "United States",
       "siteSegmentID" : 0,
       "lat" : "55.301",
       "lon" : "-148.499",
   	   "observedMaxTime"  : "",
"observedPosAmplitude" : "0.0",
"observedPosAmplitudeUnits" : "feet",
 "predictedPosAmplitude" : "0.0",
"predictedPosAmplitudeUnits" : "feet",
"predictedArrivalTime" : "2024-12-05T22:15:00Z" }, 
  
    {
       "id" : 192,
       "locationName" : "Everett",
       "locationCountry" : "United States",
       "siteSegmentID" : 0,
       "lat" : "47.980",
       "lon" : "-122.230",
   	   "observedMaxTime"  : "",
"observedPosAmplitude" : "0.0",
"observedPosAmplitudeUnits" : "feet",
 "predictedPosAmplitude" : "0.0",
"predictedPosAmplitudeUnits" : "feet",
"predictedArrivalTime" : "2024-12-05T22:15:00Z" }, 
  
    {
       "id" : 193,
       "locationName" : "Queen Charlotte",
       "locationCountry" : "Canada",
       "siteSegmentID" : 0,
       "lat" : "53.250",
       "lon" : "-132.070",
   	   "observedMaxTime"  : "",
"observedPosAmplitude" : "0.0",
"observedPosAmplitudeUnits" : "feet",
 "predictedPosAmplitude" : "0.0",
"predictedPosAmplitudeUnits" : "feet",
"predictedArrivalTime" : "2024-12-05T22:15:00Z" }, 
  
    {
       "id" : 194,
       "locationName" : "Biorka Island",
       "locationCountry" : "United States",
       "siteSegmentID" : 0,
       "lat" : "56.850",
       "lon" : "-135.570",
   	   "observedMaxTime"  : "",
"observedPosAmplitude" : "0.0",
"observedPosAmplitudeUnits" : "feet",
 "predictedPosAmplitude" : "0.0",
"predictedPosAmplitudeUnits" : "feet",
"predictedArrivalTime" : "2024-12-05T22:15:00Z" }, 
  
    {
       "id" : 195,
       "locationName" : "Bangor",
       "locationCountry" : "United States",
       "siteSegmentID" : 0,
       "lat" : "47.748",
       "lon" : "-122.728",
   	   "observedMaxTime"  : "",
"observedPosAmplitude" : "0.0",
"observedPosAmplitudeUnits" : "feet",
 "predictedPosAmplitude" : "0.0",
"predictedPosAmplitudeUnits" : "feet",
"predictedArrivalTime" : "2024-12-05T22:15:00Z" }, 
  
    {
       "id" : 196,
       "locationName" : "Kruzof Island",
       "locationCountry" : "United States",
       "siteSegmentID" : 0,
       "lat" : "57.070",
       "lon" : "-135.850",
   	   "observedMaxTime"  : "",
"observedPosAmplitude" : "0.0",
"observedPosAmplitudeUnits" : "feet",
 "predictedPosAmplitude" : "0.0",
"predictedPosAmplitudeUnits" : "feet",
"predictedArrivalTime" : "2024-12-05T22:15:00Z" }, 
  
    {
       "id" : 197,
       "locationName" : "Povorotni Point",
       "locationCountry" : "United States",
       "siteSegmentID" : 0,
       "lat" : "56.950",
       "lon" : "-135.400",
   	   "observedMaxTime"  : "",
"observedPosAmplitude" : "0.0",
"observedPosAmplitudeUnits" : "feet",
 "predictedPosAmplitude" : "0.0",
"predictedPosAmplitudeUnits" : "feet",
"predictedArrivalTime" : "2024-12-05T22:20:00Z" }, 
  
    {
       "id" : 198,
       "locationName" : "Seattle Pier 4",
       "locationCountry" : "United States",
       "siteSegmentID" : 0,
       "lat" : "47.585",
       "lon" : "-122.364",
   	   "observedMaxTime"  : "",
"observedPosAmplitude" : "0.0",
"observedPosAmplitudeUnits" : "feet",
 "predictedPosAmplitude" : "0.0",
"predictedPosAmplitudeUnits" : "feet",
"predictedArrivalTime" : "2024-12-05T22:20:00Z" }, 
  
    {
       "id" : 199,
       "locationName" : "Seattle",
       "locationCountry" : "United States",
       "siteSegmentID" : 0,
       "lat" : "47.602",
       "lon" : "-122.335",
   	   "observedMaxTime"  : "",
"observedPosAmplitude" : "0.0",
"observedPosAmplitudeUnits" : "feet",
 "predictedPosAmplitude" : "0.0",
"predictedPosAmplitudeUnits" : "feet",
"predictedArrivalTime" : "2024-12-05T22:20:00Z" }, 
  
    {
       "id" : 200,
       "locationName" : "DART 46410",
       "locationCountry" : "United States",
       "siteSegmentID" : 0,
       "lat" : "57.640",
       "lon" : "-143.814",
   	   "observedMaxTime"  : "",
"observedPosAmplitude" : "0.0",
"observedPosAmplitudeUnits" : "feet",
 "predictedPosAmplitude" : "0.0",
"predictedPosAmplitudeUnits" : "feet",
"predictedArrivalTime" : "2024-12-05T22:20:00Z" }, 
  
    {
       "id" : 201,
       "locationName" : "Stanwood",
       "locationCountry" : "United States",
       "siteSegmentID" : 0,
       "lat" : "48.219",
       "lon" : "-122.381",
   	   "observedMaxTime"  : "",
"observedPosAmplitude" : "0.0",
"observedPosAmplitudeUnits" : "feet",
 "predictedPosAmplitude" : "0.0",
"predictedPosAmplitudeUnits" : "feet",
"predictedArrivalTime" : "2024-12-05T22:25:00Z" }, 
  
    {
       "id" : 202,
       "locationName" : "La Conner",
       "locationCountry" : "United States",
       "siteSegmentID" : 0,
       "lat" : "48.361",
       "lon" : "-122.514",
   	   "observedMaxTime"  : "",
"observedPosAmplitude" : "0.0",
"observedPosAmplitudeUnits" : "feet",
 "predictedPosAmplitude" : "0.0",
"predictedPosAmplitudeUnits" : "feet",
"predictedArrivalTime" : "2024-12-05T22:25:00Z" }, 
  
    {
       "id" : 203,
       "locationName" : "Sitka",
       "locationCountry" : "United States",
       "siteSegmentID" : 0,
       "lat" : "57.053",
       "lon" : "-135.347",
   	   "observedMaxTime"  : "",
"observedPosAmplitude" : "0.0",
"observedPosAmplitudeUnits" : "feet",
 "predictedPosAmplitude" : "0.0",
"predictedPosAmplitudeUnits" : "feet",
"predictedArrivalTime" : "2024-12-05T22:25:00Z" }, 
  
    {
       "id" : 204,
       "locationName" : "Cape Decision",
       "locationCountry" : "United States",
       "siteSegmentID" : 0,
       "lat" : "56.006",
       "lon" : "-134.140",
   	   "observedMaxTime"  : "",
"observedPosAmplitude" : "0.0",
"observedPosAmplitudeUnits" : "feet",
 "predictedPosAmplitude" : "0.0",
"predictedPosAmplitudeUnits" : "feet",
"predictedArrivalTime" : "2024-12-05T22:30:00Z" }, 
  
    {
       "id" : 205,
       "locationName" : "Cape Bingham",
       "locationCountry" : "United States",
       "siteSegmentID" : 0,
       "lat" : "58.100",
       "lon" : "-136.530",
   	   "observedMaxTime"  : "",
"observedPosAmplitude" : "0.0",
"observedPosAmplitudeUnits" : "feet",
 "predictedPosAmplitude" : "0.0",
"predictedPosAmplitudeUnits" : "feet",
"predictedArrivalTime" : "2024-12-05T22:30:00Z" }, 
  
    {
       "id" : 206,
       "locationName" : "Krestof Island",
       "locationCountry" : "United States",
       "siteSegmentID" : 0,
       "lat" : "57.170",
       "lon" : "-135.480",
   	   "observedMaxTime"  : "",
"observedPosAmplitude" : "0.0",
"observedPosAmplitudeUnits" : "feet",
 "predictedPosAmplitude" : "0.0",
"predictedPosAmplitudeUnits" : "feet",
"predictedArrivalTime" : "2024-12-05T22:30:00Z" }, 
  
    {
       "id" : 207,
       "locationName" : "Salisbury Sound",
       "locationCountry" : "United States",
       "siteSegmentID" : 0,
       "lat" : "57.367",
       "lon" : "-135.791",
   	   "observedMaxTime"  : "",
"observedPosAmplitude" : "0.0",
"observedPosAmplitudeUnits" : "feet",
 "predictedPosAmplitude" : "0.0",
"predictedPosAmplitudeUnits" : "feet",
"predictedArrivalTime" : "2024-12-05T22:30:00Z" }, 
  
    {
       "id" : 208,
       "locationName" : "Lynch Cove",
       "locationCountry" : "United States",
       "siteSegmentID" : 0,
       "lat" : "47.438",
       "lon" : "-122.850",
   	   "observedMaxTime"  : "",
"observedPosAmplitude" : "0.0",
"observedPosAmplitudeUnits" : "feet",
 "predictedPosAmplitude" : "0.0",
"predictedPosAmplitudeUnits" : "feet",
"predictedArrivalTime" : "2024-12-05T22:30:00Z" }, 
  
    {
       "id" : 209,
       "locationName" : "Elfin Cove",
       "locationCountry" : "United States",
       "siteSegmentID" : 0,
       "lat" : "58.200",
       "lon" : "-136.350",
   	   "observedMaxTime"  : "",
"observedPosAmplitude" : "0.0",
"observedPosAmplitudeUnits" : "feet",
 "predictedPosAmplitude" : "0.0",
"predictedPosAmplitudeUnits" : "feet",
"predictedArrivalTime" : "2024-12-05T22:35:00Z" }, 
  
    {
       "id" : 210,
       "locationName" : "DART 46403",
       "locationCountry" : "United States",
       "siteSegmentID" : 0,
       "lat" : "52.646",
       "lon" : "-156.926",
   	   "observedMaxTime"  : "",
"observedPosAmplitude" : "0.0",
"observedPosAmplitudeUnits" : "feet",
 "predictedPosAmplitude" : "0.0",
"predictedPosAmplitudeUnits" : "feet",
"predictedArrivalTime" : "2024-12-05T22:35:00Z" }, 
  
    {
       "id" : 211,
       "locationName" : "Bremerton",
       "locationCountry" : "United States",
       "siteSegmentID" : 0,
       "lat" : "47.555",
       "lon" : "-122.639",
   	   "observedMaxTime"  : "",
"observedPosAmplitude" : "0.0",
"observedPosAmplitudeUnits" : "feet",
 "predictedPosAmplitude" : "0.0",
"predictedPosAmplitudeUnits" : "feet",
"predictedArrivalTime" : "2024-12-05T22:40:00Z" }, 
  
    {
       "id" : 212,
       "locationName" : "Ketchikan",
       "locationCountry" : "United States",
       "siteSegmentID" : 0,
       "lat" : "55.333",
       "lon" : "-131.667",
   	   "observedMaxTime"  : "",
"observedPosAmplitude" : "0.0",
"observedPosAmplitudeUnits" : "feet",
 "predictedPosAmplitude" : "0.0",
"predictedPosAmplitudeUnits" : "feet",
"predictedArrivalTime" : "2024-12-05T22:40:00Z" }, 
  
    {
       "id" : 213,
       "locationName" : "Gustavus",
       "locationCountry" : "United States",
       "siteSegmentID" : 0,
       "lat" : "58.400",
       "lon" : "-135.920",
   	   "observedMaxTime"  : "",
"observedPosAmplitude" : "0.0",
"observedPosAmplitudeUnits" : "feet",
 "predictedPosAmplitude" : "0.0",
"predictedPosAmplitudeUnits" : "feet",
"predictedArrivalTime" : "2024-12-05T22:50:00Z" }, 
  
    {
       "id" : 214,
       "locationName" : "Craig",
       "locationCountry" : "United States",
       "siteSegmentID" : 0,
       "lat" : "55.477",
       "lon" : "-133.148",
   	   "observedMaxTime"  : "",
"observedPosAmplitude" : "0.0",
"observedPosAmplitudeUnits" : "feet",
 "predictedPosAmplitude" : "0.0",
"predictedPosAmplitudeUnits" : "feet",
"predictedArrivalTime" : "2024-12-05T22:55:00Z" }, 
  
    {
       "id" : 215,
       "locationName" : "Cape Fairweather",
       "locationCountry" : "United States",
       "siteSegmentID" : 0,
       "lat" : "58.805",
       "lon" : "-137.949",
   	   "observedMaxTime"  : "",
"observedPosAmplitude" : "0.0",
"observedPosAmplitudeUnits" : "feet",
 "predictedPosAmplitude" : "0.0",
"predictedPosAmplitudeUnits" : "feet",
"predictedArrivalTime" : "2024-12-05T22:55:00Z" }, 
  
    {
       "id" : 216,
       "locationName" : "Cape Suckling",
       "locationCountry" : "United States",
       "siteSegmentID" : 0,
       "lat" : "59.981",
       "lon" : "-143.883",
   	   "observedMaxTime"  : "",
"observedPosAmplitude" : "0.0",
"observedPosAmplitudeUnits" : "feet",
 "predictedPosAmplitude" : "0.0",
"predictedPosAmplitudeUnits" : "feet",
"predictedArrivalTime" : "2024-12-05T23:00:00Z" }, 
  
    {
       "id" : 217,
       "locationName" : "Bella Bella",
       "locationCountry" : "Canada",
       "siteSegmentID" : 0,
       "lat" : "52.160",
       "lon" : "-128.140",
   	   "observedMaxTime"  : "",
"observedPosAmplitude" : "0.0",
"observedPosAmplitudeUnits" : "feet",
 "predictedPosAmplitude" : "0.0",
"predictedPosAmplitudeUnits" : "feet",
"predictedArrivalTime" : "2024-12-05T23:00:00Z" }, 
  
    {
       "id" : 218,
       "locationName" : "Situk River Mouth",
       "locationCountry" : "United States",
       "siteSegmentID" : 0,
       "lat" : "59.430",
       "lon" : "-139.570",
   	   "observedMaxTime"  : "",
"observedPosAmplitude" : "0.0",
"observedPosAmplitudeUnits" : "feet",
 "predictedPosAmplitude" : "0.0",
"predictedPosAmplitudeUnits" : "feet",
"predictedArrivalTime" : "2024-12-05T23:05:00Z" }, 
  
    {
       "id" : 219,
       "locationName" : "Tacoma",
       "locationCountry" : "United States",
       "siteSegmentID" : 0,
       "lat" : "47.300",
       "lon" : "-122.500",
   	   "observedMaxTime"  : "",
"observedPosAmplitude" : "0.0",
"observedPosAmplitudeUnits" : "feet",
 "predictedPosAmplitude" : "0.0",
"predictedPosAmplitudeUnits" : "feet",
"predictedArrivalTime" : "2024-12-05T23:05:00Z" }, 
  
    {
       "id" : 220,
       "locationName" : "DART 46402",
       "locationCountry" : "United States",
       "siteSegmentID" : 0,
       "lat" : "51.068",
       "lon" : "-164.023",
   	   "observedMaxTime"  : "",
"observedPosAmplitude" : "0.0",
"observedPosAmplitudeUnits" : "feet",
 "predictedPosAmplitude" : "0.0",
"predictedPosAmplitudeUnits" : "feet",
"predictedArrivalTime" : "2024-12-05T23:10:00Z" }, 
  
    {
       "id" : 221,
       "locationName" : "Prince Rupert",
       "locationCountry" : "Canada",
       "siteSegmentID" : 0,
       "lat" : "54.317",
       "lon" : "-130.317",
   	   "observedMaxTime"  : "",
"observedPosAmplitude" : "0.0",
"observedPosAmplitudeUnits" : "feet",
 "predictedPosAmplitude" : "0.0",
"predictedPosAmplitudeUnits" : "feet",
"predictedArrivalTime" : "2024-12-05T23:10:00Z" }, 
  
    {
       "id" : 222,
       "locationName" : "Prince Rupert",
       "locationCountry" : "Canada",
       "siteSegmentID" : 0,
       "lat" : "54.320",
       "lon" : "-130.320",
   	   "observedMaxTime"  : "",
"observedPosAmplitude" : "0.0",
"observedPosAmplitudeUnits" : "feet",
 "predictedPosAmplitude" : "0.0",
"predictedPosAmplitudeUnits" : "feet",
"predictedArrivalTime" : "2024-12-05T23:10:00Z" }, 
  
    {
       "id" : 223,
       "locationName" : "Hoonah",
       "locationCountry" : "United States",
       "siteSegmentID" : 0,
       "lat" : "58.120",
       "lon" : "-135.470",
   	   "observedMaxTime"  : "",
"observedPosAmplitude" : "0.0",
"observedPosAmplitudeUnits" : "feet",
 "predictedPosAmplitude" : "0.0",
"predictedPosAmplitudeUnits" : "feet",
"predictedArrivalTime" : "2024-12-05T23:10:00Z" }, 
  
    {
       "id" : 224,
       "locationName" : "Nisqually delta",
       "locationCountry" : "United States",
       "siteSegmentID" : 0,
       "lat" : "47.110",
       "lon" : "-122.704",
   	   "observedMaxTime"  : "",
"observedPosAmplitude" : "0.0",
"observedPosAmplitudeUnits" : "feet",
 "predictedPosAmplitude" : "0.0",
"predictedPosAmplitudeUnits" : "feet",
"predictedArrivalTime" : "2024-12-05T23:10:00Z" }, 
  
    {
       "id" : 225,
       "locationName" : "Icy Bay",
       "locationCountry" : "United States",
       "siteSegmentID" : 0,
       "lat" : "59.980",
       "lon" : "-141.520",
   	   "observedMaxTime"  : "",
"observedPosAmplitude" : "0.0",
"observedPosAmplitudeUnits" : "feet",
 "predictedPosAmplitude" : "0.0",
"predictedPosAmplitudeUnits" : "feet",
"predictedArrivalTime" : "2024-12-05T23:15:00Z" }, 
  
    {
       "id" : 226,
       "locationName" : "Schooner Beach",
       "locationCountry" : "United States",
       "siteSegmentID" : 0,
       "lat" : "59.750",
       "lon" : "-140.100",
   	   "observedMaxTime"  : "",
"observedPosAmplitude" : "0.0",
"observedPosAmplitudeUnits" : "feet",
 "predictedPosAmplitude" : "0.0",
"predictedPosAmplitudeUnits" : "feet",
"predictedArrivalTime" : "2024-12-05T23:15:00Z" }, 
  
    {
       "id" : 227,
       "locationName" : "Auke Bay",
       "locationCountry" : "United States",
       "siteSegmentID" : 0,
       "lat" : "58.380",
       "lon" : "-134.650",
   	   "observedMaxTime"  : "",
"observedPosAmplitude" : "0.0",
"observedPosAmplitudeUnits" : "feet",
 "predictedPosAmplitude" : "0.0",
"predictedPosAmplitudeUnits" : "feet",
"predictedArrivalTime" : "2024-12-05T23:15:00Z" }, 
  
    {
       "id" : 228,
       "locationName" : "Yakutat",
       "locationCountry" : "United States",
       "siteSegmentID" : 0,
       "lat" : "59.547",
       "lon" : "-139.730",
   	   "observedMaxTime"  : "",
"observedPosAmplitude" : "0.0",
"observedPosAmplitudeUnits" : "feet",
 "predictedPosAmplitude" : "0.0",
"predictedPosAmplitudeUnits" : "feet",
"predictedArrivalTime" : "2024-12-05T23:15:00Z" }, 
  
    {
       "id" : 229,
       "locationName" : "Montague Island",
       "locationCountry" : "United States",
       "siteSegmentID" : 0,
       "lat" : "60.070",
       "lon" : "-147.320",
   	   "observedMaxTime"  : "",
"observedPosAmplitude" : "0.0",
"observedPosAmplitudeUnits" : "feet",
 "predictedPosAmplitude" : "0.0",
"predictedPosAmplitudeUnits" : "feet",
"predictedArrivalTime" : "2024-12-05T23:20:00Z" }, 
  
    {
       "id" : 230,
       "locationName" : "Gull Point",
       "locationCountry" : "United States",
       "siteSegmentID" : 0,
       "lat" : "57.370",
       "lon" : "-152.600",
   	   "observedMaxTime"  : "",
"observedPosAmplitude" : "0.0",
"observedPosAmplitudeUnits" : "feet",
 "predictedPosAmplitude" : "0.0",
"predictedPosAmplitudeUnits" : "feet",
"predictedArrivalTime" : "2024-12-05T23:25:00Z" }, 
  
    {
       "id" : 231,
       "locationName" : "Cape Hinchinbrook",
       "locationCountry" : "United States",
       "siteSegmentID" : 0,
       "lat" : "60.230",
       "lon" : "-146.630",
   	   "observedMaxTime"  : "",
"observedPosAmplitude" : "0.0",
"observedPosAmplitudeUnits" : "feet",
 "predictedPosAmplitude" : "0.0",
"predictedPosAmplitudeUnits" : "feet",
"predictedArrivalTime" : "2024-12-05T23:25:00Z" },